id,code,name,info,location_address,location_number,location_city,location_localita,location_province,location_destination,location_cap,location_lat,location_lng,contacts_telephone,contacts_website,created_at,updated_at
35753,aree_sosta_camper,"Area sosta camper  ",,"Piazzale Albertelli zona centro sportivo ",,"Ponte dell?Olio",,Piacenza,Emilia,29028,44.8668288,9.63862,"+39 ",https://www.incampercongusto.it/area-sosta-camper-ponte-dellolio/,"2022-11-24 17:32:41","2023-01-24 09:41:33"
35754,aree_sosta_camper,"Area sosta camper  ",,"Parcheggio Rio delle Noci ",,Vernasca,,Piacenza,Emilia,29010,44.8170257,9.9004169,"+39 ",https://www.incampercongusto.it/area-sosta-camper-di-vigoleno/,"2022-11-24 17:32:41","2023-01-24 09:25:06"
35755,aree_sosta_camper,"Area sosta camper  ",,"Stra della Ca' Matta",,Vigolzone,,Piacenza,Emilia,29020,44.93215,9.67074,"+39 ",https://www.incampercongusto.it/area-sosta-camper-grazzano-visconti/,"2022-11-24 17:32:41","2023-01-24 09:31:24"
35756,aree_sosta_camper,"Area sosta camper  ",,"Via Roma ",,Vernasca,,Piacenza,Emilia,29010,44.7965373,9.828604,"+39 ",https://www.incampercongusto.it/area-sosta-camper-di-vernasca/,"2022-11-24 17:32:41","2023-01-24 09:23:23"
35757,aree_sosta_camper,"Area sosta camper  ",,"Via Don Renato Mezzadri ",,"Monticelli d?Ongina",,Piacenza,Emilia,29010,45.0914611,9.929659,"+39 ",https://www.incampercongusto.it/area-sosta-camper-monticelli-dongina/,"2022-11-24 17:32:41","2023-01-24 09:11:56"
35758,aree_sosta_camper,"Area sosta camper  ",,"Via Dante Alighieri ",,Gropparello,,Piacenza,Emilia,29025,44.8349758,9.7309129,"+39 ",https://www.incampercongusto.it/area-sosta-camper-gropparello/,"2022-11-24 17:32:41","2023-01-18 11:06:44"
35759,aree_sosta_camper,"Area sosta camper  ",,"Via Genova",,Bobbio,,Piacenza,Emilia,29022,44.7615268,9.3825768,"+39 ",https://www.incampercongusto.it/area-sosta-camper-bobbio/,"2022-11-24 17:32:41","2023-01-18 10:43:42"
35760,aree_sosta_camper,"Area sosta camper  ",,"Piazzale di Cima ",,Castell?Arquato,,Piacenza,Emilia,29014,44.8494964,9.8630985,"+39 ",https://www.incampercongusto.it/area-sosta-camper-castellarquato/,"2022-11-24 17:32:41","2023-01-18 10:33:36"
35761,aree_sosta_camper,"Area sosta camper  ",,"Viale Castagnetti ",,"Pianello Val Tidone",,Piacenza,Emilia,29010,44.9461484,9.4044769,"+39 ",https://www.incampercongusto.it/area-sosta-camper-pianello-val-tidone/,"2022-11-24 17:32:41","2023-01-18 10:22:40"
35762,aree_sosta_camper,"Area sosta camper  ",,"Via Sant'Ambrogio",22,Piacenza,,Piacenza,Emilia,29121,45.056143,9.701947,"346 084952 - 346 0849521",https://visitpiacenza.it/dove-dormire/area-sosta-camper-attrezzata/,"2022-11-24 17:32:41","2023-01-18 09:52:11"
35763,aree_sosta_camper,"Area sosta camper ",,"Via Trecoste",,"Monchio delle Corti",,Parma,Emilia,43010,44.412315,10.123327,"+39 ",https://www.incampercongusto.it/area-sosta-camper-monchio-corti/,"2022-11-24 17:32:41","2023-01-29 10:09:50"
35764,aree_sosta_camper,"Area sosta camper ",,"Largo 24 Agosto 1942 ",21/a,Parma,,Parma,Emilia,43100,44.8080219,10.2843501,"+39 ","https://www.incampercongusto.it/area-sosta-camper-parma/ http://www.areasostacamperparma.it","2022-11-24 17:32:41","2023-01-28 16:36:17"
35765,aree_sosta_camper,"Area sosta camper  ",,"Località Gotra",63/a,Albareto,,Parma,Emilia,43051,44.468983,9.732022,"+39 ","https://www.incampercongusto.it/area-sosta-camper-albereto-appennino/ http://www.areatarolli.it","2022-11-24 17:32:41","2023-01-29 09:58:39"
35766,aree_sosta_camper,"Area sosta camper ",,"Via XXIV Maggio ",,Fontanellato,,Parma,Emilia,43012,44.8777134,10.1693173,"+39 ",https://www.incampercongusto.it/area-sosta-camper-fontanellato/,"2022-11-24 17:32:41","2023-01-28 17:01:26"
35767,aree_sosta_camper,"Area sosta camper ",,"Via San Francesco di Sales",,Berceto,,Parma,Emilia,43042,44.510433,9.9877643,"+39 ",https://www.incampercongusto.it/area-sosta-camper-berceto/,"2022-11-24 17:32:41","2023-01-28 17:35:35"
35768,aree_sosta_camper,"Area camper ",,"Via Don Giuseppe Beotti, loc. Saliceto ",,Bardi,,Parma,Emilia,43032,44.6373054,9.747973,"+39 ",https://www.incampercongusto.it/area-camper-di-bardi/,"2022-11-24 17:32:41","2023-02-01 10:24:08"
35769,aree_sosta_camper,"Area camper ",,"Viale delle Esposizioni ",,Parma,,Parma,Emilia,43122,44.8412494,10.3221207,"+39 ",https://www.incampercongusto.it/area-camper-parma-fiere/,"2022-11-24 17:32:42","2022-11-24 17:32:42"
35770,aree_sosta_camper,"Area camper ",,"Via Giacomo Matteotti ",,Soragna,,Parma,Emilia,43019,44.9307166,10.1262161,"+39 ",https://www.incampercongusto.it/area-camper-soragna/,"2022-11-24 17:32:42","2023-02-02 11:30:24"
35771,aree_sosta_camper,"Area sosta camper ",,"Viale Martiri della Libertà ",,Bore,,Parma,Emilia,43030,44.7194588,9.7932897,"+39 0525 79137",https://www.incampercongusto.it/area-sosta-camper-bore/,"2022-11-24 17:32:42","2022-11-24 17:32:42"
35772,aree_sosta_camper,"Area sosta camper",,"Via Renzo Martini ",,Busseto,,Parma,Emilia,43011,44.9843644,10.0381257,"+39 ","https://www.incampercongusto.it/area-sosta-camper-busseto/ http://www.bussetolive.com/it/ambiente-natura/camper/","2022-11-24 17:32:42","2023-01-28 16:49:54"
35773,aree_sosta_camper,"Area di sosta camper ",,"Via Coltaro ",,Sissa,,Parma,Emilia,43018,44.966297,10.320086,"+39 ",https://www.incampercongusto.it/area-sosta-camper-sissa/,"2022-11-24 17:32:42","2022-11-24 17:32:42"
35774,aree_sosta_camper,"Area sosta camper ",,"Via Giuseppe di Vittorio",7/a,"Sala Baganza",,Parma,Emilia,43038,44.71072,10.2322466,"+39 ",https://www.incampercongusto.it/area-sosta-camper-sala-baganza/,"2022-11-24 17:32:42","2023-01-30 14:50:13"
35775,aree_sosta_camper,"Area sosta camper Laghetti di San Cipriano",,"Strada Stagno 14B ",,Roccabianca,,Parma,Emilia,43010,45.01155,10.22529,"+39 ",https://www.incampercongusto.it/area-sosta-camper-laghetti-san-cipriano-roccabianca/,"2022-11-24 17:32:42","2022-11-24 17:32:42"
35776,aree_sosta_camper,"Area sosta camper ",,"Piazzale Europa ",,Traversetolo,,Parma,Emilia,43029,44.6392232,10.3817554,"+39 ",https://www.incampercongusto.it/area-sosta-camper-traversetolo/,"2022-11-24 17:32:42","2023-02-01 10:40:55"
35777,aree_sosta_camper,"Area di sosta camper",,"Via Raffaello ",,"San Secondo Parmense",,Parma,Emilia,43017,44.9211762,10.224739,"+39 ",https://www.incampercongusto.it/area-di-sosta-camper-di-san-secondo-parmense/,"2022-11-24 17:32:42","2022-11-24 17:32:42"
35778,aree_sosta_camper,"Area camper service ",,"Via Bruno Buozzi ",,Sorbolo,,Parma,Emilia,43058,44.8493298,10.4523726,"+39 ",https://www.incampercongusto.it/area-camper-service-sorbolo/,"2022-11-24 17:32:42","2022-11-24 17:32:42"
35779,aree_sosta_camper,"Area sosta camper ",,"Piazzale Stazione ",,"Salsomaggiore Terme",,Parma,Emilia,43039,44.8184395,9.9874271,"+39 ",https://www.incampercongusto.it/area-sosta-camper-a-salsomaggiore-terme/,"2022-11-24 17:32:42","2023-01-27 09:27:35"
35780,aree_sosta_camper,"Area di sosta camper Parco del Monte Fuso",,"Strada Monte Fuso",25,"Neviano degli Arduini",,Parma,Emilia,43024,44.4959835,10.2879015,"+39 ",https://www.incampercongusto.it/area-sosta-camper-scurano-monte-fuso/,"2022-11-24 17:32:42","2023-01-28 17:47:42"
35781,aree_sosta_camper,"Area sosta camper ",,"Loc. Ca?di Bardone ",,Terenzo,,Parma,Emilia,43040,44.6239014,10.1015297,"+39 ",https://www.incampercongusto.it/area-sosta-camper-di-bardone/,"2022-11-24 17:32:42","2023-01-28 16:40:18"
35782,aree_sosta_camper,"Area camper ",,"Strada A. Grandi ",,Torrile,,Parma,Emilia,43056,44.8875712,10.3629232,"+39 ",https://www.incampercongusto.it/area-camper-a-san-polo-di-torrile/,"2022-11-24 17:32:42","2022-11-24 17:32:42"
35783,aree_sosta_camper,"Area sosta camper ",,"Via Enrico Berlinguer",,Langhirano,,Parma,Emilia,43013,44.6241802,10.2752578,"+39 ",https://www.incampercongusto.it/area-sosta-camper-langhirano/,"2022-11-24 17:32:42","2022-11-24 17:32:42"
35784,aree_sosta_camper,"Sosta Camper",,"Villa Del Fulcino, Via B. Buozzi",,Torrile,,Parma,Emilia,43056,44.8987124,10.3629935,"+39 ",https://www.incampercongusto.it/sosta-camper-villa-del-fulcino/,"2022-11-24 17:32:42","2022-11-24 17:32:42"
35785,aree_sosta_camper,"Area camper ",,"Via Spezia, 3",,Collecchio,,Parma,Emilia,43044,44.7525467,10.2191325,"+39 ",https://www.incampercongusto.it/area-camper-di-collecchio/,"2022-11-24 17:32:42","2022-11-24 17:32:42"
35786,aree_sosta_camper,"Area sosta camper ",,"Via Carlo Verdi ",,Busseto,,Parma,Emilia,43011,44.9533319,10.0731406,"+39 ","https://www.incampercongusto.it/area-sosta-camper-a-roncole-verdi/ http://www.bussetolive.com/it/ambiente-natura/camper/","2022-11-24 17:32:42","2023-01-28 16:29:45"
35790,aree_sosta_camper,"Area Sosta Camper ",,"Via Santa Lucia ",1,Ventasso,,"Reggio Emilia",Emilia,42032,44.3883048,10.3323203,"+39 ",http://www.appenninoreggiano.it/schede_intro.asp?lang=it&a=ospitalita&f=dove-dormire&s=aree-di-sosta-camper&page=11,"2022-11-24 17:32:43","2022-11-24 17:32:43"
35791,aree_sosta_camper,"Area Sosta Camper ",,"Piazzale Volontari del Po",,Brescello,,"Reggio nell'Emilia",Emilia,,44.8987694,10.5180777,"+39 ",https://www.incampercongusto.it/area-sosta-camper-brescello/,"2022-11-24 17:32:43","2022-12-20 14:51:18"
35792,aree_sosta_camper,"Area Sosta Camper",,"Via Don Reverberi",17,Castellarano,,"Reggio nell'Emilia",Emilia,,44.5083202,10.7327702,"+39 ",https://www.incampercongusto.it/area-sosta-camper-castellarano/,"2022-11-24 17:32:43","2022-12-20 14:49:07"
35793,aree_sosta_camper,"Area Camper ",,"Via Giacomo Brodolini",1,Cavriago,,"Reggio nell'Emilia",Emilia,,44.6831707,10.5301798,"+39 ",https://www.incampercongusto.it/area-camper-cavriago/,"2022-11-24 17:32:43","2022-12-20 14:46:17"
35794,aree_sosta_camper,"Area Sosta Camper ",,"Via XXV Aprile",13,"Vezzano sul Crostolo",,"Reggio nell'Emilia",Emilia,,44.5845026,10.5312535,"+ 39 0522 602032",https://www.incampercongusto.it/area-sosta-camper-vezzano-sul-crostolo/,"2022-11-24 17:32:43","2022-12-20 14:43:07"
35795,aree_sosta_camper,"Area sosta camper  ",,"Via Fratelli Manfredi",,"Reggio nell'Emilia",,"Reggio nell'Emilia",Emilia,,44.7098931,10.6246751,"+39 ",https://www.incampercongusto.it/area-sosta-camper-reggio-emilia-via-fratelli-manfredi/,"2022-11-24 17:32:43","2022-12-20 14:36:41"
35796,aree_sosta_camper,"Area Sosta Camper ",,"Via Monterampino",7,"Reggio nell'Emilia",,"Reggio nell'Emilia",Emilia,,44.6395222,10.6182754,"+ 39 0522 599342",agriturismo@larazza.it,https://www.larazza.it/servizi/area-sosta-camper/,"2022-11-24 17:32:43","2022-12-20 14:35:06"
35797,aree_sosta_camper,"Area attrezzata",,"Via Vigo",,Canossa,,"Reggio nell'Emilia",Emilia,,44.599854,10.415274,http://www.appenninoreggiano.it/schede_intro.asp?lang=it&a=ospitalita&f=dove-dormire&s=aree-di-sosta-camper&page=1,"2022-11-24 17:32:43","2022-11-24 17:32:43"
35798,aree_sosta_camper,"Area Sosta Camper",,"Loc. Canossa",,Canossa,,"Reggio nell'Emilia",Emilia,,44.5750669,10.4551132,"+39 ",http://www.appenninoreggiano.it/schede_intro.asp?lang=it&a=ospitalita&f=dove-dormire&s=aree-di-sosta-camper&page=1,"2022-11-24 17:32:43","2022-11-24 17:32:43"
35799,aree_sosta_camper,"Area Sosta Camper ",,"Via dei Partigiani ",,"Castelnovo ne Monti",,"Reggio Emilia",Emilia,42035,44.4292492,10.3978267,"+39 ",http://www.appenninoreggiano.it/schede_intro.asp?lang=it&a=ospitalita&f=dove-dormire&s=aree-di-sosta-camper&page=1,"2022-11-24 17:32:43","2022-11-24 17:32:43"
35800,aree_sosta_camper,"Camper service",,"Via Morandi",9,Bibbiano,,"Reggio nell'Emilia",Emilia,,44.6600635,10.4757046,https://www.reggioemiliawelcome.it/it/bibbiano/ospitalita/dove-dormire/aree-di-sosta-camper/camper-service-bibbiano/,"2022-11-24 17:32:43","2022-12-20 14:30:25"
35801,aree_sosta_camper,"Area Sosta Camper ",,"Piazza della Fiera",,Carpineti,,"Reggio Emilia",Emilia,42033,44.4550451,10.5164288,"+39 ",http://www.appenninoreggiano.it/schede_intro.asp?lang=it&a=ospitalita&f=dove-dormire&s=aree-di-sosta-camper&page=1,"2022-11-24 17:32:43","2022-11-24 17:32:43"
35802,aree_sosta_camper,"Area Sosta Camper ",,"Via Fazzano",5,Correggio,,"Reggio nell'Emilia",Emilia,,44.758623,10.7707719,"+39 ",https://www.incampercongusto.it/area-sosta-camper-correggio/,"2022-11-24 17:32:43","2022-12-20 14:27:49"
35803,aree_sosta_camper,"Area Sosta Camper ",,"Via della Chiusa",29,Rubiera,,"Reggio nell'Emilia",Emilia,,44.6510237,10.7869237,"+39 ",https://www.camperonline.it/sosta-camper/aree-di-sosta/italia/emilia-romagna/parcheggio/697,"2022-11-24 17:32:43","2022-12-20 14:25:56"
35804,aree_sosta_camper,"Area Sosta Camper ",,"Via Ugo Foscolo",9,Guastalla,,"Reggio nell'Emilia",Emilia,,44.9237805,10.6522602,"+ 39 0522 839763",uit@comune.guastalla.re.it,https://www.guastallaculturaeturismo.it/servizi/area-sosta-per-caravan-via-foscolo/,"2022-11-24 17:32:43","2022-12-20 14:20:42"
35805,aree_sosta_camper,"Area Sosta Camper ",,"Via Argine",15,Boretto,,"Reggio nell'Emilia",Emilia,,44.9009472,10.5578961,"+ 39 348 8515911",info@riverpassion.it,https://www.riverpassion.it/index.html,"2022-11-24 17:32:43","2022-12-20 14:13:41"
35806,aree_sosta_camper,"Area Sosta Camper ",,"Via Bertolini",13/a,Viano,,"Reggio Emilia",Emilia,42030,44.524363,10.556507,"+39 ",http://www.appenninoreggiano.it/schede_intro.asp?lang=it&a=ospitalita&f=dove-dormire&s=aree-di-sosta-camper&page=1,"2022-11-24 17:32:43","2022-11-24 17:32:43"
35807,aree_sosta_camper," Area sosta camper- Camper club Mutina",,"Strada Collegarola",76/a,Modena,,Modena,Bologna-Modena,41100,44.6135616,10.9439697,"+39 ",https://www.visitmodena.it/it/pianifica-il-viaggio/ospitalita/dove-dormire/aree-di-sosta-camper/modena-area-sosta-camper-camper-club-mutina,"2022-11-24 17:32:43","2023-01-26 13:02:39"
35808,aree_sosta_camper," Area sosta camper",,"Via Cameazzo",6,"Fiorano Modenese",,Modena,Bologna-Modena,41042,44.5414185,10.8271556,"+39 ",https://www.visitmodena.it/it/pianifica-il-viaggio/ospitalita/dove-dormire/aree-di-sosta-camper/fiorano-modenese-area-sosta-camper,"2022-11-24 17:32:44","2023-01-26 13:07:15"
35809,aree_sosta_camper," Area sosta camper service",,"Via Destro Guerro   ",,"Castelvetro di Modena",,Modena,Bologna-Modena,41014,44.506189,10.9473672,"+39 ",https://www.visitmodena.it/it/pianifica-il-viaggio/ospitalita/dove-dormire/aree-di-sosta-camper/castelvetro-di-modena-area-sosta-camper-service,"2022-11-24 17:32:44","2023-01-26 12:05:32"
35810,aree_sosta_camper," Area sosta camper",,"Piazzale delle Piscine ",,Carpi,,Modena,Bologna-Modena,41012,44.7843123,10.8673463,"+39 ",https://www.visitmodena.it/it/pianifica-il-viaggio/ospitalita/dove-dormire/aree-di-sosta-camper/carpi-area-sosta-camper,"2022-11-24 17:32:44","2023-01-27 10:40:26"
35811,aree_sosta_camper," Area sosta camper",,"c/o Agriturismo Casa Carpanelli, Via Oppio",8,Nonantola,,Modena,Bologna-Modena,41015,44.6708374,11.0677027,"+39 ",https://www.visitmodena.it/it/pianifica-il-viaggio/ospitalita/dove-dormire/aree-di-sosta-camper/nonantola-area-sosta-camper,"2022-11-24 17:32:44","2023-01-27 08:16:37"
35812,aree_sosta_camper," Area sosta camper",,"Via Fondo Val Tiepido",,Maranello,,Modena,Bologna-Modena,41053,44.5128601,10.8783942,"+39 ",https://www.visitmodena.it/it/pianifica-il-viaggio/ospitalita/dove-dormire/aree-di-sosta-camper/maranello-area-sosta-camper,"2022-11-24 17:32:44","2023-01-26 12:54:21"
35813,aree_sosta_camper," Area sosta camper",,"Via Cristoforo Colombo",11,"Castelnuovo Rangone",,Modena,Bologna-Modena,41051,44.5784061,10.9078034,"+39 ",https://www.visitmodena.it/it/pianifica-il-viaggio/ospitalita/dove-dormire/aree-di-sosta-camper/castelnuovo-rangone-area-sosta-camper,"2022-11-24 17:32:44","2023-01-27 10:48:26"
35814,aree_sosta_camper,Camperopoli,,"Via Beverara",157,Bologna,,Bologna,Bologna-Modena,40131,44.5245258,11.3320793,"+39 051 6341504",info@camperopoli.it,https://www.camperopoli.it/,"2022-11-24 17:32:44","2022-11-24 17:32:44"
35815,aree_sosta_camper,"CS Comunale ",,"Via Funo",22,"Funo di Argelato",,Bologna,Bologna-Modena,40050,44.60162,11.35939,"+39 051 6634611",https://www.camperonline.it/sosta-camper/aree-di-sosta/italia/emilia-romagna/cs-comunale/374,"2022-11-24 17:32:44","2023-01-31 09:06:25"
35817,aree_sosta_camper,"CS Camperopoli",,"Via Morgobbo","1516 a/b/c","San Pietro in Casale",,Bologna,Bologna-Modena,40018,44.701642,11.429367,"+39 051 810306",https://www.camperonline.it/sosta-camper/aree-di-sosta/italia/emilia-romagna/cs-camperopoli/22406,"2022-11-24 17:32:44","2023-01-31 09:08:45"
35818,aree_sosta_camper,"Camper Service ",,"Via Roma ",,"Calderara di Reno",,Bologna,Bologna-Modena,40012,44.559454,11.269268,"+39 ",https://www.camperonline.it/sosta-camper/aree-di-sosta/italia/emilia-romagna/camper-service-calderara-di-reno/23034,"2022-11-24 17:32:44","2023-01-31 09:09:53"
35819,aree_sosta_camper,"Camper Service ",,"via Marano",1,Castenaso,,Bologna,Bologna-Modena,40055,44.515715,11.468866,"+39 ",https://www.comune.castenaso.bo.it/it-it/servizi/usare-un-mezzo-di-trasporto-c/aree-sosta-camper-387-139-1-d8866f4eb82a59fbbd6e63f6b92539c9,"2022-11-24 17:32:44","2023-01-31 09:12:07"
35820,aree_sosta_camper,"Area Attrezzata ",,"Via Gramicia, 76 ",,Ferrara,,Ferrara,Romagna,44100,44.854065,11.631598,"+39 0532 752396",https://www.ferraraterraeacqua.it/it/servizi-e-fiere/aree-sosta-camper-campeggi-e-camper-service,"2022-11-24 17:32:44","2023-01-30 09:49:18"
35821,aree_sosta_camper,"Area Sosta ",,"Via Rampari di San Paolo ",,Ferrara,,Ferrara,Romagna,44100,44.835178,11.610425,"+39 0532 230110",https://www.ferraraterraeacqua.it/it/servizi-e-fiere/aree-sosta-camper-campeggi-e-camper-service,"2022-11-24 17:32:44","2023-01-30 09:58:16"
35822,aree_sosta_camper,"Area Attrezzata",,"Vicolo del Faro",39,Goro,,Ferrara,Romagna,44020,44.8182642,12.3511542,"+ 39  0533 995030",https://www.ferraraterraeacqua.it/it/servizi-e-fiere/aree-sosta-camper-campeggi-e-camper-service,"2022-11-24 17:32:44","2022-11-24 17:32:44"
35823,aree_sosta_camper,"Area Attrezzata ",,"Via Cesare Laurenti",55,Mesola,,Ferrara,Romagna,44026,44.92325,12.23432,"+39 ",https://www.ferraraterraeacqua.it/it/servizi-e-fiere/aree-sosta-camper-campeggi-e-camper-service,"2022-11-24 17:32:44","2022-11-24 17:32:44"
35824,aree_sosta_camper,"Area Sosta Bosco Mesola",,"Via Cristina",84,Mesola,,Ferrara,Romagna,44026,44.876322,12.230447,"+ 39 0533 794386",https://www.ferraraterraeacqua.it/it/servizi-e-fiere/aree-sosta-camper-campeggi-e-camper-service,"2022-11-24 17:32:44","2022-11-24 17:32:44"
35825,aree_sosta_camper,"Punto Sosta",,"Ciclabile FE20",,"Riva del Po",,Ferrara,Romagna,44020,44.9566,11.75691,"+39 ",https://www.ferraraterraeacqua.it/it/servizi-e-fiere/aree-sosta-camper-campeggi-e-camper-service,"2022-11-24 17:32:44","2022-11-24 17:32:44"
35826,aree_sosta_camper,"Area Attrezzata ",,"Via Michelangelo",,Copparo,,Ferrara,Romagna,44034,44.891642,11.812727,"+39 ",https://www.ferraraterraeacqua.it/it/servizi-e-fiere/aree-sosta-camper-campeggi-e-camper-service,"2022-11-24 17:32:44","2022-11-24 17:32:44"
35827,aree_sosta_camper,"Camper service via Galassi ",,"Via Giuseppe Galassi",,Argenta,,Ferrara,Romagna,44011,44.61191,11.840215,"+39 ",https://www.ferraraterraeacqua.it/it/servizi-e-fiere/aree-sosta-camper-campeggi-e-camper-service,"2022-11-24 17:32:45","2022-11-24 17:32:45"
35828,aree_sosta_camper,"Nuova Area sosta camper Bosco Vecchio",,"V. Poderi, sulla S.S. 16 ""Adriatica"" in direzione Ravenna. ",,Argenta,,Ferrara,Romagna,44011,44.630163,11.811207,"+39 0532 330276",https://www.ferraraterraeacqua.it/it/servizi-e-fiere/aree-sosta-camper-campeggi-e-camper-service,"2022-11-24 17:32:45","2022-11-24 17:32:45"
35829,aree_sosta_camper,"Sosta camper presso il Museo delle Valli di Argenta",,"Via Cardinala",1,Argenta,,Ferrara,Romagna,44011,44.6160136,11.8267309,"+ 39 0532 808035",https://www.ferraraterraeacqua.it/it/servizi-e-fiere/aree-sosta-camper-campeggi-e-camper-service,"2022-11-24 17:32:45","2022-11-24 17:32:45"
35830,aree_sosta_camper,"Anse Vallive ",,"Via Argine Mezzano",1,Ostellato,,Ferrara,Romagna,44020,44.743137,11.967459,"+39 ",https://www.ferraraterraeacqua.it/it/servizi-e-fiere/aree-sosta-camper-campeggi-e-camper-service,"2022-11-24 17:32:45","2022-11-24 17:32:45"
35831,aree_sosta_camper,"Area Camper ",,"Via dello Sport",,Tresignana,,Ferrara,Romagna,44039,44.816097,11.899969,"+39 ",https://www.ferraraterraeacqua.it/it/servizi-e-fiere/aree-sosta-camper-campeggi-e-camper-service,"2022-11-24 17:32:45","2022-11-24 17:32:45"
35832,aree_sosta_camper,"Area sosta camper e camper service",,"Via Mazzini ",,Portomaggiore,,Ferrara,Romagna,44015,44.697156,11.809241,"+39 ",https://www.ferraraterraeacqua.it/it/servizi-e-fiere/aree-sosta-camper-campeggi-e-camper-service,"2022-11-24 17:32:45","2022-11-24 17:32:45"
35833,aree_sosta_camper,"Area Sosta ",,"Piazza Pertini/Via Forti",6,Fiscaglia,,Ferrara,Romagna,44027,44.772346,11.934167,"+39 ",https://www.ferraraterraeacqua.it/it/servizi-e-fiere/aree-sosta-camper-campeggi-e-camper-service,"2022-11-24 17:32:45","2022-11-24 17:32:45"
35834,aree_sosta_camper,"Area di sosta camper ""Ariaperta""",,"Via delle Nazioni",39,Comacchio,,Ferrara,Romagna,44022,44.7258621,12.2250741,"+ 39 334 2680986",info@ariaapertasostacamper.it,https://www.ferraraterraeacqua.it/it/servizi-e-fiere/aree-sosta-camper-campeggi-e-camper-service,"2022-11-24 17:32:45","2022-11-24 17:32:45"
35835,aree_sosta_camper,"Area Sosta Teodorico",,"Via Teodorico",,Ravenna,,Ravenna,Romagna,,44.4236694,12.2099242,"+39 0544 451539",http://www.turismo.ra.it/ita/Ospitalit%C3%A0/Dove-dormire/Dettaglio/215/Teodorico,"2022-11-24 17:32:45","2022-11-24 17:32:45"
35836,aree_sosta_camper,"Area Sosta Camper - Ancora Blu",,"Via Giuseppe Guizzetti, 10",,Ravenna,,Ravenna,Romagna,,44.4955612,12.2766684,"+39 0544 446398",portocorsini.camper@gmail.com,"2022-11-24 17:32:45","2022-11-24 17:32:45"
35837,aree_sosta_camper,"Area Sosta  Piazza della Resistenza",,"Piazza della Resistenza",,Ravenna,,Ravenna,Romagna,,44.4144383,12.1888993,"+39 0544 35755",http://www.turismo.ra.it/ita/Ospitalit%C3%A0/Dove-dormire/Dettaglio/218/Piazza-della-Resistenza,"2022-11-24 17:32:45","2022-11-24 17:32:45"
35838,aree_sosta_camper,"Area Sosta  Piazza Fratelli Minardi",,"Piazza Fratelli Minardi",,Ravenna,,Ravenna,Romagna,,44.4170317,12.2040764,"+39 0544 451539",http://www.turismo.ra.it/ita/Ospitalit%C3%A0/Dove-dormire/Dettaglio/734/Piazza-Fratelli-Minardi,"2022-11-24 17:32:45","2022-11-24 17:32:45"
35839,aree_sosta_camper,"Area Sosta  Classe",,"Piazzale Ravaioli Guerrino",,Ravenna,,Ravenna,Romagna,,44.3781636,12.2356708,"+39 0544 473661",http://www.turismo.ra.it/ita/Ospitalit%C3%A0/Dove-dormire/Dettaglio/217/Classe,"2022-11-24 17:32:45","2022-11-24 17:32:45"
35840,aree_sosta_camper,"Area Sosta Camper - Lido di Dante",,"Via Marabina",,Ravenna,,Ravenna,Romagna,,44.3882474,12.3150492,"+ 39 331 4199892","2022-11-24 17:32:45","2022-11-24 17:32:45"
35841,aree_sosta_camper,"Area Sosta  Sant'Alberto",,"Piazza Tempioni",,Ravenna,,Ravenna,Romagna,,44.5431383,12.1544286,"+39 0544 528710",http://www.turismo.ra.it/ita/Ospitalit%C3%A0/Dove-dormire/Dettaglio/219/Sant%27Alberto,"2022-11-24 17:32:45","2022-11-24 17:32:45"
35842,aree_sosta_camper,"Area Sosta  Eurolandia",,"Via Romea Sud",,Ravenna,,Ravenna,Romagna,,44.3643897,12.2511755,"+39 371 1353617",http://www.turismo.ra.it/ita/Ospitalit%C3%A0/Dove-dormire/Dettaglio/735/Eurolandia,"2022-11-24 17:32:45","2023-01-27 09:57:23"
35843,aree_sosta_camper,"Area Sosta Camper - Casalborsetti",,"Via S. Ortolani",15,Ravenna,,Ravenna,Romagna,,44.550078,12.2800243,"+39 333 8890026",http://casalborsetti.eu/portfolio/area-camper/,"2022-11-24 17:32:45","2022-11-24 17:32:45"
35844,aree_sosta_camper,"Area Lido di Savio",,"Piazza Forlimpopoli",,Ravenna,,Ravenna,Romagna,,44.3094068,12.3431673,"+ 39 339 8215170",http://www.turismo.ra.it/ita/Ospitalit%C3%A0/Dove-dormire/Dettaglio/682/Area-Lido-di-Savio,"2022-11-24 17:32:46","2022-11-24 17:32:46"
35845,aree_sosta_camper,"Area attrezzata Agriturismo Massari",,"Via Coronella",110,Conselice,,Ravenna,Romagna,,44.5312624,11.8183167,"+39 0545 980013",https://www.bassaromagnamia.it/poitofintrests/area-di-sosta-conselice/,"2022-11-24 17:32:46","2023-01-27 11:04:20"
35846,aree_sosta_camper,"Parcheggio Camper",,"Piazza Padre Bernardo Menni",,Conselice,,Ravenna,Romagna,48017,44.509005,11.824929,"+39 0545 280898",https://www.bassaromagnamia.it/poitofintrests/area-di-sosta-conselice/,"2022-11-24 17:32:46","2023-01-27 10:23:52"
35847,aree_sosta_camper,"Camper Service",,"Via G. Amendola",,Conselice,,Ravenna,Romagna,,44.508617,11.834323,"+39 0545 280898",turismo@unione.labassaromagna.it,https://www.bassaromagnamia.it/en/poitofintrests/camper-parking-spot-conselice/,"2022-11-24 17:32:46","2023-02-20 15:48:06"
35848,aree_sosta_camper,"Area sosta",,"Via C. Battisti",,Conselice,,Ravenna,Romagna,,44.512165,11.83128,"+39 0545 280898",turismo@unione.labassaromagna.it,https://www.bassaromagnamia.it/en/poitofintrests/camper-parking-spot-conselice/,"2022-11-24 17:32:46","2023-02-20 15:49:58"
35849,aree_sosta_camper,"Camper Service",,"Via Provinciale Bastia",357,Conselice,,Ravenna,Romagna,,44.553637,11.878157,"+39 0545 280898",turismo@unione.labassaromagna.it,https://www.bassaromagnamia.it/en/poitofintrests/camper-parking-spot-conselice/,"2022-11-24 17:32:46","2023-02-20 15:48:32"
35850,aree_sosta_camper,"Area sosta",,"Piazza Tiziano",,Conselice,,Ravenna,Romagna,,44.5642275,11.8749869,"+39 0545 280898",turismo@unione.labassaromagna.it,https://www.bassaromagnamia.it/en/poitofintrests/camper-parking-spot-conselice/,"2022-11-24 17:32:46","2023-02-20 15:49:29"
35851,aree_sosta_camper,"Punto Carico/Scarico Camper",,"Via Stradello ",,"Bagnacavallo ",,Ravenna,Romagna,48012,44.421993,11.973832,"+39 0545 280898",https://www.bassaromagnamia.it/poitofintrests/area-di-sosta-di-via-stradello/,"2022-11-24 17:32:46","2023-01-27 10:02:03"
35852,aree_sosta_camper,"Punto Sosta/Parcheggio Camper",,"Via Fossa",53,"Bagnacavallo ",,Ravenna,Romagna,48012,44.420324,11.976192,"+39 0545 280898",https://www.bassaromagnamia.it/poitofintrests/area-di-sosta-di-via-stradello/,"2022-11-24 17:32:46","2023-01-27 09:41:19"
35853,aree_sosta_camper,"Parcheggio Camper presso parcheggio Parco del Loto",,"Via Foro Boario",161,"Lugo ",,Ravenna,Romagna,48022,44.425364,11.907856,"+39 347 4697796",http://www.comune.lugo.ra.it/Citta-e-territorio/Ospitalita/Punto-camper2,"2022-11-24 17:32:46","2023-01-27 09:20:19"
35854,aree_sosta_camper,"Punto Carico Scarico",,"Via Piratello ",57,"Lugo ",,Ravenna,Romagna,48022,44.4337723,11.8958445,"+39 347 4697796",http://www.comune.lugo.ra.it/Citta-e-territorio/Ospitalita/Punto-camper2,"2022-11-24 17:32:46","2023-01-27 09:31:01"
35855,aree_sosta_camper,"Area parcheggio camper ",,"Via Marconi, Parcheggio Via Golfieri (lato Cimitero dell?Osservanza) ",,"Faenza  ",,Ravenna,Romagna,48018,44.2807074,11.870516,"+39 0546 21695",http://www.terredifaenza.it/ospitalita/dove_dormire/os_areesosta/pagina6-081.html,"2022-11-24 17:32:46","2023-01-31 10:42:36"
35856,aree_sosta_camper,"Area sosta camper ",,"Parco Fluviale - Via Firenze ",,"Riolo Terme ",,Ravenna,Romagna,48025,44.2727194,11.719648,"+39 ",http://www.terredifaenza.it/ospitalita/dove_dormire/os_areesosta/pagina5-081.html,"2022-11-24 17:32:46","2023-01-30 09:07:49"
35857,aree_sosta_camper,"Area attrezzata Parco Tombarona",,"Via Giuseppe Billi",,"Brisighella ",,Ravenna,Romagna,48013,44.2217928,11.7785787,"+39 0546 81166",http://www.terredifaenza.it/ospitalita/dove_dormire/os_areesosta/pagina8-081.html,"2022-11-24 17:32:46","2023-01-30 09:07:22"
35858,aree_sosta_camper,"Area Sosta Casola Valsenio",,"Via II Giugno",,"Casola Valsenio ",,Ravenna,Romagna,48032,44.222484,11.619478,"+39 ",http://www.terredifaenza.it/ospitalita/dove_dormire/os_areesosta/pagina9-081.html,"2022-11-24 17:32:46","2023-01-30 09:06:40"
35859,aree_sosta_camper,"Area Sosta Casola Valsenio ",,"Via Gramsci",,"Casola Valsenio ",,Ravenna,Romagna,48032,44.226994,11.630447,"+39 ",http://www.terredifaenza.it/ospitalita/dove_dormire/os_areesosta/pagina9-081.html,"2022-11-24 17:32:46","2023-01-30 12:04:39"
35860,aree_sosta_camper,"Area Sosta Castel Bolognese",,"Via Antonio Donati",,"Castel Bolognese",,Ravenna,Romagna,,44.3164832,11.7925268,"+39 ",http://www.terredifaenza.it/ospitalita/dove_dormire/os_areesosta/pagina9-081.html,"2022-11-24 17:32:46","2023-01-31 10:43:21"
35864,aree_sosta_camper,"Area Sosta Camper",,"SS 16 Adriatica - Cesenatico Centro Storico ",,Cesenatico,,Forlì-Cesena,Romagna,47042,44.235676,12.357936,"+39 346 6149632",https://visitcesenatico.it/hmvc_strutture/parcheggio-della-rocca/,"2022-11-24 17:32:47","2023-01-10 13:55:09"
35865,aree_sosta_camper,"Punto Sosta camper",,"Via Battistini",,"Bagno di Romagna",,Forlì-Cesena,Romagna,47021,43.863714,11.977152,"0543 911046 - info@bagnodiromagnaturismo.it",http://www.bagnodiromagnaturismo.it/-/area-di-sosta-camper-di-s-piero-in-bagno-aree_sosta,"2022-11-24 17:32:47","2023-01-26 10:55:17"
35866,aree_sosta_camper,"Area di Sosta Ambrola",,"Via Ambrola",,Sarsina,,Forlì-Cesena,Romagna,47027,43.9173934,12.1435675,"+39 0547 698102",http://www.sarsinaturismo.it/-/area-sosta-ambrola-_aree_sosta,"2022-11-24 17:32:47","2023-01-26 11:15:39"
35867,aree_sosta_camper,"Area di Sosta Via Lunga",,"Via Lunga",51,Forlì,,Forlì-Cesena,Romagna,47122,44.23822,12.033246,"+39 0543 712111",http://www.turismoforlivese.it/servizi/menu/dinamica.aspx?ID=4661,"2022-11-24 17:32:47","2023-01-30 15:50:01"
35868,aree_sosta_camper,"Area di Sosta Piazzale Giolitti",,"Piazzale G. Giolitti ",,Forlì,,Forlì-Cesena,Romagna,47122,44.221779,12.054983,"+39 0543 712111",http://www.turismoforlivese.it/servizi/menu/dinamica.aspx?ID=4661,"2022-11-24 17:32:47","2023-01-30 15:48:04"
35869,aree_sosta_camper,"Area di Sosta PIazzale Zambianchi",,"Piazzale R. Zambianchi ",,Forlì,,Forlì-Cesena,Romagna,47122,44.222038,12.055158,"+39 0543 712111",http://www.turismoforlivese.it/servizi/menu/dinamica.aspx?ID=4661,"2022-11-24 17:32:47","2023-01-30 15:47:28"
35870,aree_sosta_camper,"Area di Sosta Marsilio da Padova",,"Via Marsilio da Padova",5,Forlì,,Forlì-Cesena,Romagna,47122,44.235447,12.071457,"+39 0543 712111",http://www.turismoforlivese.it/servizi/menu/dinamica.aspx?ID=4661,"2022-11-24 17:32:47","2023-01-30 15:07:01"
35871,aree_sosta_camper,"Area di Sosta dell'Argine",,"Via Donne della Costituente",4,Forlì,,Forlì-Cesena,Romagna,47121,44.2189302,12.0319176,"+39 0543 712111",http://www.turismoforlivese.it/servizi/menu/dinamica.aspx?ID=4661,"2022-11-24 17:32:47","2023-01-30 14:59:24"
35872,aree_sosta_camper,"Area Sosta Camper",,"Viale G. Matteotti",,"Mercato Saraceno",,Forlì-Cesena,Romagna,47025,43.964909,12.198966,"+39 0547 699711",http://www.mercatosaracenoturismo.it/aree-di-sosta-camper/-/asset_publisher/7QG7gfVEmttd/content/area-di-sosta-camper-di-mercato-saraceno_aree_sosta?inheritRedirect=false&redirect=http%3A%2F%2Fwww.mercatosaracenoturismo.it%2Faree-di-sosta-camper%3Fp_p_id%3D101_INSTANCE_7QG7gfVEmttd%26p_p_lifecycle%3D0%26p_p_state%3Dnormal%26p_p_mode%3Dview%26p_p_col_id%3Dcolumn-1%26p_p_col_pos%3D1%26p_p_col_count%3D2,"2022-11-24 17:32:47","2023-02-01 11:24:50"
35873,aree_sosta_camper,"Area Sosta Camper",,"VIA UMBRIA - SP 137",,Verghereto,,Forlì-Cesena,Romagna,,43.7947308,12.0046362,"+ 39 0543 902313",turismo@comune.verghereto.fc.it,http://www.fumaioloturismo.it,"2022-11-24 17:32:47","2023-01-26 11:09:56"
35874,aree_sosta_camper,"Area Sosta Camper",,"Piazza G. Racca",,Longiano,,Forlì-Cesena,Romagna,,44.0744147,12.3252033,"+39 0547 665484",http://www.comune.longiano.fc.it/servizi/informazioni/informazioni_fase03.aspx?ID=162,"2022-11-24 17:32:47","2022-11-24 17:32:47"
35875,aree_sosta_camper,"Area Sosta Camper",,"Piazzale Ambrosini",,Cesena,,Forlì-Cesena,Romagna,,44.1442863,12.2274802,"+39 0547 356327",iat@comune.cesena.fc.it,https://www.comune.cesena.fc.it/cesenaturismo/sosta-attrezzata-camper,"2022-11-24 17:32:47","2023-02-20 15:42:59"
35876,aree_sosta_camper,"Area Sosta Rio Pircio",,"Via Benivieni",4,Rimini,,Rimini,Romagna,,44.1271643,12.4888318,"+39 339 1871689",a.berardi5@alice.it,https://www.riopircio.com/,"2022-11-24 17:32:47","2022-11-24 17:32:47"
35877,aree_sosta_camper,"Area Sosta Parking delle Robine",,"Viale Pinzon",258,Rimini,,Rimini,Romagna,47814,44.1282574,12.4885501,"+ 39 0541 332301",info@parkingdellerobinie.com,https://www.parkingdellerobinie.com/,"2022-11-24 17:32:47","2022-11-24 17:32:47"
35879,aree_sosta_camper,"Area Sosta ""Fattoria di Eby""",,"Via Tassinara",81,Saludecio,,Rimini,Romagna,,43.8971063,12.7289091,"+ 39 339 2423644",info@fattoriaeby.it,https://www.fattoriaeby.it/news/area-camper-se-pranzi-da-noi-il-parcheggio-e-gratis-1,"2022-11-24 17:32:47","2023-02-20 15:26:09"
35880,aree_sosta_camper,"Area Sosta Camper",,"Via Europa",,"Montefiore Conca",,Rimini,Romagna,,43.8877759,12.6116288,"+39 0541 980035",ragioneria@comune.montefiore-conca.rn.it,https://www.comune.montefiore-conca.rn.it/itinerari,"2022-11-24 17:32:47","2023-02-20 15:28:12"
35881,aree_sosta_camper,"Area Sosta ""Adriatico Parking""",,"Via Benivieni",12,Rimini,,Rimini,Romagna,,44.1267643,12.4879752,"+39 0541 330214",ladriatico@alice.it,http://www.ladriaticoparking.it/,"2022-11-24 17:32:48","2022-11-24 17:32:48"
35882,aree_sosta_camper,"Area Sosta ""Nautiparking""",,"Via Ortigara",80,Rimini,,Rimini,Romagna,,44.0746396,12.57041,"+39 0541 29488",info@marinadirimini.com,https://www.riminiturismo.it/visitatori/ospitalita/dove-dormire/aree-di-sosta/parcheggio-darsena,"2022-11-24 17:32:48","2022-11-24 17:32:48"
35883,aree_sosta_camper,"Area sosta ""Settebello Rimini Parking""",,"Via Roma",86,Rimini,,Rimini,Romagna,,44.0607356,12.57459,"+39 0541 51861",riminiparking@gmail.com,https://www.riminiturismo.it/visitatori/ospitalita/dove-dormire/aree-di-sosta/parcheggio-attrezzato-roma,"2022-11-24 17:32:48","2022-11-24 17:32:48"
35884,aree_sosta_camper,"Area Sosta ""Mare d'Inverno""",,"Via Augusto Murri",13,Rimini,,Rimini,Romagna,,44.0653963,12.5841259,"+ 39 0541 615750",gianfranco.belle35bq@alice.it,https://www.camperonline.it/sosta-camper/aree-di-sosta/italia/emilia-romagna/mare-d-inverno/4111,"2022-11-24 17:32:48","2022-11-24 17:32:48"
35885,aree_sosta_camper,"Area Sosta ""Porto Mario""",,"Viale Pinzon",310/a,Rimini,,Rimini,Romagna,,44.1229088,12.4938637,"+39 347 4533383",info@portomario.com,http://www.portomario.com/camper/,"2022-11-24 17:32:48","2022-11-24 17:32:48"
35886,aree_sosta_camper,"Centro Caravan ""Misano""",,"Via Tavoleto",53,Rimini,,Rimini,Romagna,,43.967242,12.673198,"+ 39 338 4312046",caravanmisano@gmail.com,https://www.centrocaravanmisano.it/area-sosta,"2022-11-24 17:32:48","2022-11-24 17:32:48"
35887,aree_sosta_camper,"Area Camper - Agriturismo Tenuta Santini",,"Via Campo",33,Coriano,,Rimini,Romagna,47853,43.959031,12.58752,"+ 39 338 1149085",info@tenutasantini.com,http://www.tenutasantini.com/area-camper-coriano.cfm,"2022-11-24 17:32:48","2022-11-24 17:32:48"
35888,aree_sosta_camper,"Area Camper Parcheggio Verucchio",,"Via Giuseppe Nanni",,Verucchio,,Rimini,Romagna,,43.9795136,12.4241843,"+ 39 0541 670222",http://www.riviera.rimini.it/situr/come-arrivare/mobilita/parcheggi/parcheggio-camper-via-nanni.html,"2022-11-24 17:32:48","2022-11-24 17:32:48"
35889,aree_sosta_camper,"Area attrezzata ""Santarcamper""",,"Via della Resistenza",,"Santarcangelo di Romagna",,Rimini,Romagna,,44.058157,12.4468722,"+39 0541 356111",http://www.comune.santarcangelo.rn.it/servizi/cultura-turismo/santarcamper-larea-attrezzata-per-la-sosta-di-camper,"2022-11-24 17:32:48","2022-11-24 17:32:48"
35890,aree_sosta_camper,"Area Camper - Agriturismo La Concia",,"Via Ca' Berbece",13,Pennabilli,,Rimini,Romagna,,43.8176465,12.2659994,"+39 338 8267213",info@agriturismolaconcia.it,http://www.agriturismolaconcia.it/it/agricampeggio.htm,"2022-11-24 17:32:48","2022-11-24 17:32:48"
35891,aree_sosta_camper,"Area Camper - Camping Marecchia",,"Via Molino Schieti",22,Pennabilli,,Rimini,Romagna,,43.8258817,12.2502543,"+39 338 7545712",info@campingmarecchia.it,https://www.campingmarecchia.it/campeggio,"2022-11-24 17:32:48","2022-11-24 17:32:48"
35892,aree_sosta_camper,"Area Sosta ""Quattroventi""",,"Stada Quattro Venti",27,"San Leo",,Rimini,Romagna,,43.896082,12.350373,"+39 0541 916211",municipio@comune.san-leo.rn.it,"2022-11-24 17:32:48","2023-02-20 15:14:04"
35893,aree_sosta_camper,"Parcheggio Camper Piazzale Europa",,"Via Casotti Tosi",2,"Sant'Agata Feltria",,Rimini,Romagna,47866,43.8644679,12.206508,"+ 39 0541 848022",http://www.prolocosantagatafeltria.com/area_camper.php,"2022-11-24 17:32:48","2022-11-24 17:32:48"
35894,aree_sosta_camper,"Parcheggio camper",,"Via Castello di Montebello",,"Poggio Torriana",,Rimini,Romagna,47824,43.9701598,12.3686428,"+39 0541 675220",http://www.riviera.rimini.it/situr/come-arrivare/mobilita/parcheggi/parcheggio-camper.html,"2022-11-24 17:32:48","2022-11-24 17:32:48"
35895,aree_sosta_camper,"Parcheggio bus e camper Foglino",,"Via degli Orti",,Rimini,,Rimini,Romagna,,44.103975,12.5115619,"+ 39 333 5411083",https://www.riminiturismo.it/visitatori/ospitalita/dove-dormire/aree-di-sosta/parcheggi-comunali,"2022-11-24 17:32:48","2023-02-20 12:24:35"
35896,aree_sosta_camper,"Parcheggio bus e camper Chiabrera",,"Via Gabriello Chiabrera",,Rimini,,Rimini,Romagna,,44.04859,12.597087,"+ 39 0541 704829",https://www.riminiturismo.it/visitatori/ospitalita/dove-dormire/aree-di-sosta/parcheggi-comunali,"2022-11-24 17:32:48","2023-02-20 12:21:57"
35899,aree_sosta_camper,"Area Sosta Camper ",,"Via Cigarini",4/1,"Reggio Emilia",,"Reggio Emilia",,42122,44.651168,10.730381,"+39 ",https://www.laprateria.net/agricampeggio/,"2022-11-24 17:32:49","2022-11-24 17:32:49"
35928,aree_sosta_camper,"Area sosta camper",,"Piazzale Rio Carona",,"Castel San Giovanni",,Piacenza,Emilia,,45.05987,9.43909,https://www.incampercongusto.it/area-sosta-camper-castel-san-giovanni/,"2022-11-24 17:32:50","2022-11-24 17:32:50"
35929,aree_sosta_camper,"Area Sosta Camper ",,"Via Cigarini",4/1,"Reggio Emilia",,"Reggio Emilia",,42122,44.651168,10.730381,"+39 ",https://www.laprateria.net/agricampeggio/,"2022-11-24 17:32:50","2022-11-24 17:32:50"
35949,aree_sosta_camper,"Area attrezzata",,"Via Roma",,Bore,,Parma,Emilia,,44.7167368,9.8260297,"+39 0525 79137",protocollo@postacert.comune.bore.pr.it,http://www.comune.bore.pr.it/notizie/area-camper-del-comune-di-bore,"2022-11-24 17:32:51","2023-02-20 10:02:58"
35950,aree_sosta_camper,"Area Sosta Camper",,"Via Cigarini",4/1,"Reggio nell'Emilia",,"Reggio nell'Emilia",Emilia,,44.651168,10.730381,"+ 39 0522 345530",info@laprateria.net,https://www.laprateria.net/agricampeggio/,"2022-11-24 17:32:51","2022-11-24 17:32:51"
35951,aree_sosta_camper,"Area Sosta Camper",,"Piazzale Dante Alighieri",,"Castelnovo ne' Monti",,"Reggio nell'Emilia",Emilia,,44.4194854,10.4083732,http://www.appenninoreggiano.it/schede_intro.asp?lang=it&a=ospitalita&f=dove-dormire&s=aree-di-sosta-camper&page=1,"2022-11-24 17:32:51","2022-11-24 17:32:51"
35952,aree_sosta_camper,"Area Sosta Camper",,"Via Rescadore",40,"Villa Minozzo",,"Reggio nell'Emilia",Emilia,,44.2967216,10.4256291,http://www.appenninoreggiano.it/schede_intro.asp?lang=it&a=ospitalita&f=dove-dormire&s=aree-di-sosta-camper&page=1,"2022-11-24 17:32:51","2022-11-24 17:32:51"
35956,aree_sosta_camper,"Area attrezzata",,"Via Giuliana",,"Bagnara di Romagna",,Ravenna,Romagna,,44.3874962,11.8284778,https://www.bassaromagnamia.it/en/poitofintrests/camper-parking-spot-bagnara-di-romagna/,"2022-11-24 17:32:51","2023-02-20 15:12:44"
35957,aree_sosta_camper,"Area sosta camper",,"Via Nilde Iotti",,"Bagnara di Romagna",,Ravenna,Romagna,,44.3895112,11.8248487,https://www.bassaromagnamia.it/en/poitofintrests/camper-parking-spot-bagnara-di-romagna/,"2022-11-24 17:32:52","2023-02-20 15:09:20"
35958,aree_sosta_camper,"Area attrezzata ""Ex Peligro""",,"Viale dei Mille/area ex Peligro- Loc. Centro-Boschetto",,Cesenatico,,Forlì-Cesena,Romagna,,44.189674273521,12.414749930686,"+39 0547 80772",info@atr.fc.it,https://www.atr.fc.it/,"2022-11-24 17:32:52","2023-02-20 10:33:28"
35970,aree_sosta_camper,"Area Sosta ""Crevalcore""",,"Parco Nord - via di Mezzo Levante",,Crevalcore,,Bologna,Bologna-Modena,,44.724822,11.149008,https://www.camperonline.it/sosta-camper/aree-di-sosta/italia/emilia-romagna/parcheggio/25576,"2022-11-24 17:32:52","2023-02-20 10:31:39"
37784,aree_sosta_camper,"Area Sosta - Fontanelice",,"Corso Europa",,Fontanelice,,Bologna,Bologna-Modena,,44.260202687932,11.560946142357,"+ 39 0542 92566","+39 054292566","2023-01-13 12:59:50","2023-01-13 12:59:50"
37799,aree_sosta_camper,"Area sosta ""Casalfiumanese""",,"Via Andrea Costa",,Casalfiumanese,,Bologna,Bologna-Modena,,44.297736589326,11.61775422024,"+ 39 0542 666122","2023-01-16 09:42:43","2023-01-16 09:42:43"
37800,aree_sosta_camper,"Camper service ""Casalfiumanese""",,"Via di Vittorio",,Casalfiumanese,,Bologna,Bologna-Modena,,44.295315,11.6309547,"+ 39 0542 666122","2023-01-16 09:45:09","2023-01-16 09:45:09"
37801,aree_sosta_camper,"Area sosta ""Borgo Tossignano""",,"Via Marzabotto",,"Borgo Tossignano",,Bologna,Bologna-Modena,,44.2760736,11.5855688,"2023-01-16 09:55:47","2023-01-16 09:55:47"
37802,aree_sosta_camper,"Area sosta ""Tossignano""",,"Via Nuova",,"Borgo Tossignano",,Bologna,Bologna-Modena,,44.271201719815,11.602699530092,"2023-01-16 09:58:20","2023-01-16 09:58:20"
37818,aree_sosta_camper,"Area attrezzata ""La Prateria""",,"Via Cigarini",4/1,"Reggio nell'Emilia",,"Reggio nell'Emilia",Emilia,,44.6509744,10.7318016,"+ 39 0522 345530",info@laprateria.net,https://www.reggioemiliawelcome.it/en/reggio-emilia/hotels-and-restaurants/where-to-stay/camper-parks/agricampeggio-la-prateria?set_language=en,"2023-01-16 13:57:44","2023-01-16 13:57:44"
37819,aree_sosta_camper,"Area sosta ""Podere Giardino""",,"Via Walter Manzotti",7,"Reggio nell'Emilia",,"Reggio nell'Emilia",Emilia,,44.6656155,10.7026178,"+ 39 0522 340298",info@podere-giardino.it,https://www.reggioemiliawelcome.it/it/reggio-emilia/ospitalita/dove-dormire/aree-di-sosta-camper/area-di-sosta-camper-podere-giardino,"2023-01-16 14:03:52","2023-01-16 14:03:52"
37820,aree_sosta_camper,"Area sosta",,"Via Europa",2,Boretto,,"Reggio nell'Emilia",Emilia,,44.898722478662,10.551036943224,https://www.reggioemiliawelcome.it/it/boretto/ospitalita/dove-dormire/aree-di-sosta-camper/area-sosta-camper-boretto,"2023-01-16 14:07:14","2023-01-16 14:07:14"
37821,aree_sosta_camper,"Area attrezzata ""Arco Antico""",,"Via Tonelli",32,Gattatico,,"Reggio nell'Emilia",Emilia,,44.7730051,10.4699029,"+ 39 339 2591616",arcoantico@live.it,https://www.reggioemiliawelcome.it/en/gattatico/hotels-and-restaurants/where-to-stay/camper-parks/equipped-camper-area-arco-antico?set_language=en,"2023-01-16 14:12:04","2023-01-16 14:12:04"
37827,aree_sosta_camper,"Area sosta",,"Via Giovanni XXIII",,"Castel del Rio",,Bologna,Bologna-Modena,,44.216358629965,11.504222522251,"+ 39 338 3737724","2023-01-17 08:31:17","2023-01-17 08:31:17"
37834,aree_sosta_camper,"Area sosta",,"Via Tribbioli",,"Castel del Rio",,Bologna,Bologna-Modena,,44.214375844713,11.505453322294,"+ 39 338 3737724","2023-01-17 10:08:49","2023-01-17 10:08:49"
37835,aree_sosta_camper,"Camper service",,"Via Pertini",4,"Castel del Rio",,Bologna,Bologna-Modena,,44.217972995084,11.505953297119,"2023-01-17 10:19:04","2023-01-17 10:19:04"
37836,aree_sosta_camper,"Camper service",,"Via Romagnoli",,Imola,,Bologna,Bologna-Modena,,44.368596405862,11.724213084076,"2023-01-17 10:21:13","2023-01-17 10:21:13"
37850,aree_sosta_camper,"Area attrezzata ""Viale Europa Unita""",,"Viale Europa Unita",,Cervia,,Ravenna,Romagna,,44.237559,12.3636989,"2023-01-18 07:42:15","2023-01-18 07:42:15"
37851,aree_sosta_camper,"Area Sosta ""Via Aldo Ascione""",,"Via Aldo Ascione",,Cervia,,Ravenna,Romagna,,44.2841589,12.321338,"2023-01-18 07:56:11","2023-01-18 07:56:11"
37852,aree_sosta_camper,"Area Sosta ""Via Jelenia Gora""",,"Via Jelenia Gora",,Cervia,,Ravenna,Romagna,,44.278107174839,12.332327531833,"2023-01-18 08:01:25","2023-01-18 08:01:25"
37864,aree_sosta_camper,"Area Sosta ""Milano Marittima - Terme""",,"Via Forlanini",,Cervia,,Ravenna,Romagna,,44.273022400339,12.328778878461,"2023-01-18 10:43:46","2023-01-18 10:43:46"
37890,aree_sosta_camper,"Area Sosta",,"loc. Pieve di Revigozzo",,Bettola,,Piacenza,Emilia,,44.7549549,9.5583267,"+ 39 0523 917245","2023-01-19 11:28:39","2023-01-19 11:28:39"
37924,aree_sosta_camper,"Area attrezzata",,"Via Arda",,"Lugagnano Val d'Arda",,Piacenza,Emilia,,44.8190628084,9.8283418274035,"+ 39 347 1134871",usdlugagnanese@libero.it,"2023-01-24 09:50:04","2023-01-24 09:50:04"
38105,aree_sosta_camper,"Area sosta",,"Via Clementina Mandolesi",,Montiano,,Forlì-Cesena,Romagna,,44.0852092,12.3048923,"+ 39 0547 51032","2023-02-01 11:31:42","2023-02-01 11:31:42"
