id;code;name;info;location_address;location_number;location_city;location_localita;location_province;location_destination;location_cap;location_lat;location_lng;contacts_website;contacts_phone;contacts_email;created_at;updated_at
5760;aree_sosta_camper;"Area sosta camper  ";;"Piazzale Albertelli zona centro sportivo ";;"Ponte dell’Olio";;Piacenza;Emilia;29028;44.8668288;9.63862;https://www.incampercongusto.it/area-sosta-camper-ponte-dellolio/;;;"2019-12-05 21:18:08";"2019-12-05 21:18:08"
5761;aree_sosta_camper;"Area sosta camper  ";;"Parcheggio Rio delle Noci ";;Vernasca;Vigoleno;Piacenza;Emilia;29010;44.8170257;9.9004169;https://www.incampercongusto.it/area-sosta-camper-di-vigoleno/;;;"2019-12-05 21:18:08";"2019-12-05 21:18:08"
5762;aree_sosta_camper;"Area sosta camper  ";;"Via Roma, SS654 ";;Vigolzone;"Grazzano Visconti";Piacenza;Emilia;29020;44.9338666;9.6741726;https://www.incampercongusto.it/area-sosta-camper-grazzano-visconti/;;;"2019-12-05 21:18:08";"2019-12-05 21:18:08"
5763;aree_sosta_camper;"Area sosta camper  ";;"Via Roma ";;Vernasca;;Piacenza;Emilia;29010;44.7965373;9.828604;https://www.incampercongusto.it/area-sosta-camper-di-vernasca/;;;"2019-12-05 21:18:08";"2019-12-05 21:18:08"
5764;aree_sosta_camper;"Area sosta camper  ";;"Via Don Renato Mezzadri ";;"Monticelli d’Ongina";;Piacenza;Emilia;29010;45.0914611;9.929659;https://www.incampercongusto.it/area-sosta-camper-monticelli-dongina/;;;"2019-12-05 21:18:08";"2019-12-05 21:18:08"
5765;aree_sosta_camper;"Area sosta camper  ";;"Via Dante Alighieri ";;Gropparello;;Piacenza;Emilia;29025;44.8349758;9.7309129;https://www.incampercongusto.it/area-sosta-camper-gropparello/;;;"2019-12-05 21:18:08";"2019-12-05 21:18:08"
5766;aree_sosta_camper;"Area sosta camper  ";;"Via Genova";;Bobbio;;Piacenza;Emilia;29022;44.7615268;9.3825768;https://www.incampercongusto.it/area-sosta-camper-bobbio/;;;"2019-12-05 21:18:08";"2019-12-05 21:18:08"
5767;aree_sosta_camper;"Area sosta camper  ";;"Piazzale di Cima ";;Castell’Arquato;;Piacenza;Emilia;29014;44.8494964;9.8630985;https://www.incampercongusto.it/area-sosta-camper-castellarquato/;;;"2019-12-05 21:18:08";"2019-12-05 21:18:08"
5768;aree_sosta_camper;"Area sosta camper  ";;"Viale Castagnetti ";;"Pianello Val Tidone";;Piacenza;Emilia;29010;44.9461484;9.4044769;https://www.incampercongusto.it/area-sosta-camper-pianello-val-tidone/;;;"2019-12-05 21:18:08";"2019-12-05 21:18:08"
5769;aree_sosta_camper;"Area sosta camper  ";"costo giornaliero senza servizi euro 9,90 costo giornaliero con servizi euro 17,00";"Via Sant'Ambrogio, 22  ";;Piacenza;;Piacenza;Emilia;29121;45.056143;9.701947;http://turismo.provincia.piacenza.it/it/ospitalita/dove-dormire/aree-di-sosta-camper/item/area-sosta-camper-piacenza.html?category_id=271;"346 084952 - 346 0849521";;"2019-12-05 21:18:08";"2019-12-05 21:18:08"
5770;aree_sosta_camper;"Area sosta camper ";;"Via Trecoste";;"Monchio delle Corti";;Parma;Emilia;43010;44.412315;10.123327;https://www.incampercongusto.it/area-sosta-camper-monchio-corti/;;;"2019-12-05 21:18:08";"2019-12-05 21:18:08"
5771;aree_sosta_camper;"Area sosta camper ";;"Largo 24 Agosto 1942 n. 21/A ";;Parma;;Parma;Emilia;43100;44.8080219;10.2843501;https://www.incampercongusto.it/area-sosta-camper-parma/;;;"2019-12-05 21:18:08";"2019-12-05 21:18:08"
5772;aree_sosta_camper;"Area sosta camper  ";;"Località Gotra, 63/A ";;Albareto;;Parma;Emilia;43051;44.468983;9.732022;https://www.incampercongusto.it/area-sosta-camper-albereto-appennino/;;;"2019-12-05 21:18:08";"2019-12-05 21:18:08"
5773;aree_sosta_camper;"Area sosta camper ";;"Via XXIV Maggio ";;Fontanellato;;Parma;Emilia;43012;44.8777134;10.1693173;https://www.incampercongusto.it/area-sosta-camper-fontanellato/;;;"2019-12-05 21:18:08";"2019-12-05 21:18:08"
5774;aree_sosta_camper;"Area sosta camper ";;"Via San Francesco di Sales";;Berceto;;Parma;Emilia;43042;44.510433;9.9877643;https://www.incampercongusto.it/area-sosta-camper-berceto/;;;"2019-12-05 21:18:08";"2019-12-05 21:18:08"
5775;aree_sosta_camper;"Area camper ";"solo servizio";"Via Don Giuseppe Beotti, loc. Saliceto ";;Bardi;;Parma;Emilia;43032;44.6373054;9.747973;https://www.incampercongusto.it/area-camper-di-bardi/;;;"2019-12-05 21:18:08";"2019-12-05 21:18:08"
5776;aree_sosta_camper;"Area camper ";"solo servizio durante Fiera Camper";"Viale delle Esposizioni ";;Parma;;Parma;Emilia;43122;44.8412494;10.3221207;https://www.incampercongusto.it/area-camper-parma-fiere/;;;"2019-12-05 21:18:08";"2019-12-05 21:18:08"
5777;aree_sosta_camper;"Area camper ";"solo servizio";"Via Giacomo Matteotti ";;Soragna;;Parma;Emilia;43019;44.9307166;10.1262161;https://www.incampercongusto.it/area-camper-soragna/;;;"2019-12-05 21:18:08";"2019-12-05 21:18:08"
5778;aree_sosta_camper;"Area sosta camper ";;"Viale Martiri della Libertà ";;Bore;;Parma;Emilia;43030;44.7194588;9.7932897;https://www.incampercongusto.it/area-sosta-camper-bore/;"0525 79137";;"2019-12-05 21:18:08";"2019-12-05 21:18:08"
5779;aree_sosta_camper;"Area sosta camper";"solo sosta";"Via Renzo Martini ";;Busseto;;Parma;Emilia;43011;44.9843644;10.0381257;https://www.incampercongusto.it/area-sosta-camper-busseto/;;;"2019-12-05 21:18:08";"2019-12-05 21:18:08"
5780;aree_sosta_camper;"Area di sosta camper ";"solo sosta";"Via Coltaro ";;Sissa;;Parma;Emilia;43018;44.966297;10.320086;https://www.incampercongusto.it/area-sosta-camper-sissa/;;;"2019-12-05 21:18:08";"2019-12-05 21:18:08"
5781;aree_sosta_camper;"Area sosta camper ";;"Via Giuseppe di Vittorio 7/A ";;"Sala Baganza";;Parma;Emilia;43038;44.71072;10.2322466;https://www.incampercongusto.it/area-sosta-camper-sala-baganza/;;;"2019-12-05 21:18:08";"2019-12-05 21:18:08"
5782;aree_sosta_camper;"Area sosta camper Laghetti di San Cipriano";;"Strada Stagno 14B ";;Roccabianca;;Parma;Emilia;43010;45.01155;10.22529;https://www.incampercongusto.it/area-sosta-camper-laghetti-san-cipriano-roccabianca/;;;"2019-12-05 21:18:08";"2019-12-05 21:18:08"
5783;aree_sosta_camper;"Area sosta camper ";;"Piazzale Europa ";;Traversetolo;;Parma;Emilia;43029;44.6392232;10.3817554;https://www.incampercongusto.it/area-sosta-camper-traversetolo/;;;"2019-12-05 21:18:08";"2019-12-05 21:18:08"
5784;aree_sosta_camper;"Area di sosta camper";"solo sosta";"Via Raffaello ";;"San Secondo Parmense";;Parma;Emilia;43017;44.9211762;10.224739;https://www.incampercongusto.it/area-di-sosta-camper-di-san-secondo-parmense/;;;"2019-12-05 21:18:08";"2019-12-05 21:18:08"
5785;aree_sosta_camper;"Area camper service ";;"Via Bruno Buozzi ";;Sorbolo;;Parma;Emilia;43058;44.8493298;10.4523726;https://www.incampercongusto.it/area-camper-service-sorbolo/;;;"2019-12-05 21:18:08";"2019-12-05 21:18:08"
5786;aree_sosta_camper;"Area sosta camper ";;"Piazzale Stazione ";;"Salsomaggiore Terme";;Parma;Emilia;43039;44.8184395;9.9874271;https://www.incampercongusto.it/area-sosta-camper-a-salsomaggiore-terme/;;;"2019-12-05 21:18:08";"2019-12-05 21:18:08"
5787;aree_sosta_camper;"Area di sosta camper Parco del Monte Fuso";;"Strada Monte Fuso, 25";;"Neviano degli Arduini";Scurano;Parma;Emilia;43024;44.4959835;10.2879015;https://www.incampercongusto.it/area-sosta-camper-scurano-monte-fuso/;;;"2019-12-05 21:18:08";"2019-12-05 21:18:08"
5788;aree_sosta_camper;"Area sosta camper ";;"Loc. Ca’di Bardone ";;Terenzo;Bardone;Parma;Emilia;43040;44.6239014;10.1015297;https://www.incampercongusto.it/area-sosta-camper-di-bardone/;;;"2019-12-05 21:18:08";"2019-12-05 21:18:08"
5789;aree_sosta_camper;"Area camper ";"solo servizi";"Strada A. Grandi ";;Torrile;"San Polo ";Parma;Emilia;43056;44.8875712;10.3629232;https://www.incampercongusto.it/area-camper-a-san-polo-di-torrile/;;;"2019-12-05 21:18:08";"2019-12-05 21:18:08"
5790;aree_sosta_camper;"Area sosta camper ";;"Via Enrico Berlinguer";;Langhirano;;Parma;Emilia;43013;44.6241802;10.2752578;https://www.incampercongusto.it/area-sosta-camper-langhirano/;;;"2019-12-05 21:18:08";"2019-12-05 21:18:08"
5791;aree_sosta_camper;"Sosta Camper";;"Villa Del Fulcino, Via B. Buozzi";;Torrile;"Villa del Fulcino";Parma;Emilia;43056;44.8987124;10.3629935;https://www.incampercongusto.it/sosta-camper-villa-del-fulcino/;;;"2019-12-05 21:18:08";"2019-12-05 21:18:08"
5792;aree_sosta_camper;"Area camper ";"solo servizio";"Via Spezia, 3";;Collecchio;;Parma;Emilia;43044;44.7525467;10.2191325;https://www.incampercongusto.it/area-camper-di-collecchio/;;;"2019-12-05 21:18:08";"2019-12-05 21:18:08"
5793;aree_sosta_camper;"Area sosta camper ";"solo sosta";"Via Carlo Verdi ";;Busseto;"Roncole Verdi";Parma;Emilia;43011;44.9533319;10.0731406;https://www.incampercongusto.it/area-sosta-camper-a-roncole-verdi/;;;"2019-12-05 21:18:08";"2019-12-05 21:18:08"
5794;aree_sosta_camper;"Area Sosta Camper ";;"Via Olimpia";;"Bagnolo in Piano";;"Reggio Emilia";Emilia;42011;44.7680096;10.666434;https://www.incampercongusto.it/area-sosta-camper-bagnolo-in-piano/;;;"2019-12-05 21:18:08";"2019-12-05 21:18:08"
5795;aree_sosta_camper;"Area Sosta Camper ";;"Via della Libertà";;Novellara;;"Reggio Emilia";Emilia;42017;44.8442681;10.7322645;https://www.incampercongusto.it/area-sosta-camper-novellara/;;;"2019-12-05 21:18:08";"2019-12-05 21:18:08"
5796;aree_sosta_camper;"Area Sosta Camper ";;"Piazza BentiVoglio ";;Gualtieri;;"Reggio Emilia";Emilia;42044;44.9053666;10.63042;https://www.incampercongusto.it/area-sosta-camper-gualtieri/;;;"2019-12-05 21:18:08";"2019-12-05 21:18:08"
5797;aree_sosta_camper;"Area Sosta Camper ";;"Via Santa Lucia 1 ";;Ventasso;"Cervarezza Terme";"Reggio Emilia";Emilia;42032;44.3883048;10.3323203;https://www.incampercongusto.it/area-sosta-camper-cervarezza-terme/;;;"2019-12-05 21:18:08";"2019-12-05 21:18:08"
5798;aree_sosta_camper;"Area Sosta Camper ";;"Piazzale Volontari del Po ";;Brescello;;"Reggio Emilia";Emilia;42041;44.8987694;10.5180777;https://www.incampercongusto.it/area-sosta-camper-brescello/;;;"2019-12-05 21:18:08";"2019-12-05 21:18:08"
5799;aree_sosta_camper;"Area Sosta Camper";;"Via Don ReVerberi ";;Castellarano;;"Reggio Emilia";Emilia;42014;44.5083202;10.7327702;https://www.incampercongusto.it/area-sosta-camper-castellarano/;;;"2019-12-05 21:18:08";"2019-12-05 21:18:08"
5800;aree_sosta_camper;"Area Camper ";"solo servizio";"Via Pianella ";;Cavriago;;"Reggio Emilia";Emilia;42025;44.6831707;10.5301798;https://www.incampercongusto.it/area-camper-cavriago/;;;"2019-12-05 21:18:08";"2019-12-05 21:18:08"
5801;aree_sosta_camper;"Area Sosta Camper ";;"Parco Pineta S.S. ";;"Vezzano sul Crostolo";;"Reggio Emilia";Emilia;42030;44.5845026;10.5312535;https://www.incampercongusto.it/area-sosta-camper-vezzano-sul-crostolo/;;;"2019-12-05 21:18:08";"2019-12-05 21:18:08"
5802;aree_sosta_camper;"Area sosta camper  ";;"Via Fratelli Manfredi ";;"Reggio Emilia";;"Reggio Emilia";Emilia;42124;44.7098931;10.6246751;https://www.incampercongusto.it/area-sosta-camper-reggio-emilia-via-fratelli-manfredi/;;;"2019-12-05 21:18:08";"2019-12-05 21:18:08"
5803;aree_sosta_camper;"Area Sosta Camper ";;"Via Monterapino ";;"Reggio Emilia";"La Razza";"Reggio Emilia";Emilia;43123;44.6395222;10.6182754;https://www.incampercongusto.it/area-sosta-camper-la-razza/;;;"2019-12-05 21:18:08";"2019-12-05 21:18:08"
5804;aree_sosta_camper;"Area sosta camper ";;"Via Vigo";;Canossa;"Ciano d’Enza";"Reggio Emilia";Emilia;42026;44.599854;10.415274;https://www.incampercongusto.it/area-sosta-camper-ciano-denza/;;;"2019-12-05 21:18:08";"2019-12-05 21:18:08"
5805;aree_sosta_camper;"Area Sosta Camper ";;"Loc. Canossa ";;Canossa;;"Reggio Emilia";Emilia;42056;44.5750669;10.4551132;https://www.incampercongusto.it/area-sosta-camper-canossa/;;;"2019-12-05 21:18:08";"2019-12-05 21:18:08"
5806;aree_sosta_camper;"Area Sosta Camper ";;"Via dei Partigiani ";;"Castelnovo ne Monti";;"Reggio Emilia";Emilia;42035;44.4292492;10.3978267;https://www.incampercongusto.it/area-sosta-camper-castelnovo-ne-monti/;;;"2019-12-05 21:18:08";"2019-12-05 21:18:08"
5807;aree_sosta_camper;"Area sosta camper ";"solo scarico";"Via Morandi 9 - di fronte al supermercato Conad";;Bibbiano;;"Reggio Emilia";Emilia;42021;44.6600635;10.4757046;https://www.incampercongusto.it/area-sosta-camper-di-bibbiano-solo-scarico/;;;"2019-12-05 21:18:08";"2019-12-05 21:18:08"
5808;aree_sosta_camper;"Area Sosta Camper ";;"Piazza della Fiera";;Carpineti;;"Reggio Emilia";Emilia;42033;44.4550451;10.5164288;https://www.incampercongusto.it/area-sosta-camper-carpineti/;;;"2019-12-05 21:18:08";"2019-12-05 21:18:08"
5809;aree_sosta_camper;"Area Sosta Camper ";;"Via Fazzano ";;Correggio;;"Reggio Emilia";Emilia;42015;44.758623;10.7707719;https://www.incampercongusto.it/area-sosta-camper-correggio/;;;"2019-12-05 21:18:08";"2019-12-05 21:18:08"
5810;aree_sosta_camper;"Area Sosta Camper ";;"Via Maria Melato";;Rubiera;;"Reggio Emilia";Emilia;42048;44.6510237;10.7869237;https://www.incampercongusto.it/area-sosta-camper-rubiera/;;;"2019-12-05 21:18:08";"2019-12-05 21:18:08"
5811;aree_sosta_camper;"Area Sosta Camper ";;"Via Ugo Foscolo ";;Guastalla;;"Reggio Emilia";Emilia;42016;44.9237805;10.6522602;https://www.incampercongusto.it/area-sosta-camper-guastalla/;;;"2019-12-05 21:18:08";"2019-12-05 21:18:08"
5812;aree_sosta_camper;"Area Sosta Camper ";;"Via Europa ";;Boretto;;"Reggio Emilia";Emilia;42022;44.9009472;10.5578961;https://www.incampercongusto.it/area-sosta-camper-boretto/;;;"2019-12-05 21:18:08";"2019-12-05 21:18:08"
5813;aree_sosta_camper;"Area Sosta Camper ";;"Via Bertolini 13/A";;Viano;"San Giovanni di Querciola";"Reggio Emilia";Emilia;42030;44.524363;10.556507;https://www.incampercongusto.it/area-sosta-camper-san-giovanni-di-querciola-a-viano/;;;"2019-12-05 21:18:08";"2019-12-05 21:18:08"
5814;aree_sosta_camper;" Area sosta camper- Camper club Mutina";;"Strada Collegarola, 76/a   ";;Modena;;Modena;Bologna-Modena;41100;44.6135616;10.9439697;https://www.visitmodena.it/it/informazioni-turistiche/ospitalita/dove-dormire/aree-di-sosta-camper/modena-area-sosta-camper-camper-club-mutina;;;"2019-12-05 21:18:08";"2019-12-05 21:18:08"
5815;aree_sosta_camper;" Area sosta camper";;"Via Cameazzo, 6  ";;"Fiorano Modenese";;Modena;Bologna-Modena;41042;44.5414185;10.8271556;https://www.visitmodena.it/it/informazioni-turistiche/ospitalita/dove-dormire/aree-di-sosta-camper/fiorano-modenese-area-sosta-camper;;;"2019-12-05 21:18:08";"2019-12-05 21:18:08"
5816;aree_sosta_camper;" Area sosta camper service";;"Via Destro Guerro   ";;"Castelvetro di Modena";;Modena;Bologna-Modena;41014;44.506189;10.9473672;https://www.visitmodena.it/it/informazioni-turistiche/ospitalita/dove-dormire/aree-di-sosta-camper/castelvetro-di-modena-area-sosta-camper;;;"2019-12-05 21:18:08";"2019-12-05 21:18:08"
5817;aree_sosta_camper;" Area sosta camper";;"Piazzale delle Piscine ";;Carpi;;Modena;Bologna-Modena;41012;44.7843123;10.8673463;https://www.visitmodena.it/it/informazioni-turistiche/ospitalita/dove-dormire/aree-di-sosta-camper/carpi-area-sosta-camper;;;"2019-12-05 21:18:08";"2019-12-05 21:18:08"
5818;aree_sosta_camper;" Area sosta camper";;"c/o Agriturismo Casa Carpanelli, Via Oppio, 8 ";;Nonantola;;Modena;Bologna-Modena;41015;44.6708374;11.0677027;https://www.visitmodena.it/it/informazioni-turistiche/ospitalita/dove-dormire/aree-di-sosta-camper/nonantola-area-sosta-camper;;;"2019-12-05 21:18:09";"2019-12-05 21:18:09"
5819;aree_sosta_camper;" Area sosta camper";;"Via Fondo Val Tiepido";;Maranello;;Modena;Bologna-Modena;41053;44.5128601;10.8783942;https://www.visitmodena.it/it/informazioni-turistiche/ospitalita/dove-dormire/aree-di-sosta-camper/maranello-area-sosta-camper;;;"2019-12-05 21:18:09";"2019-12-05 21:18:09"
5820;aree_sosta_camper;" Area sosta camper";;"Via Cristoforo Colombo, 11 ";;"Castelnuovo Rangone";;Modena;Bologna-Modena;41051;44.5784061;10.9078034;https://www.visitmodena.it/it/informazioni-turistiche/ospitalita/dove-dormire/aree-di-sosta-camper/castelnuovo-rangone-area-sosta-camper;;;"2019-12-05 21:18:09";"2019-12-05 21:18:09"
5821;aree_sosta_camper;"Bottega del Campeggiatore (area attrezzata)";"Area di sosta a fianco del centro vendite, aperta tutto l’anno, è dotata di carico e scarico acque chiare,  scure e di punti di attacco luce. Officina di riparazione con possibili ricambi. ";"Via Beverara, 157 ";;Bologna;;Bologna;Bologna-Modena;40131;44.5245258;11.3320793;http://www.bottegacampeggiatore.com/area-di-sosta.php;"051 6341504 - info@bottegacampeggiatore.com";;"2019-12-05 21:18:09";"2019-12-05 21:18:09"
5822;aree_sosta_camper;"CS Comunale ";"Camper service presso PS del cimitero, di fronte al depuratore comunale.";"Via Funo, 22 ";;"Funo di Argelato";;Bologna;Bologna-Modena;40050;44.60162;11.35939;https://www.camperonline.it/sosta-camper/aree-di-sosta/italia/emilia-romagna/cs-comunale/374;"051 6634611";;"2019-12-05 21:18:09";"2019-12-05 21:18:09"
5823;aree_sosta_camper;"Area Camper Autogrill Castelbentivoglio Ovest";"Camper service su autostrada con tutti i servizi";"A13 Bologna-Padova km 311+500";;Bentivoglio;;Bologna;Bologna-Modena;40010;44.622319;11.419526;https://www.camperonline.it/sosta-camper/aree-di-sosta/italia/emilia-romagna/castelbentivoglio-ovest/8768;"051 664 0041";;"2019-12-05 21:18:09";"2019-12-05 21:18:09"
5824;aree_sosta_camper;"CS Camperopoli";"Camper Service presso store Camperopoli";"Via Morgobbo, 1516 A/B/C ";;"San Pietro in Casale";;Bologna;Bologna-Modena;40018;44.701642;11.429367;https://www.camperonline.it/sosta-camper/aree-di-sosta/italia/emilia-romagna/cs-camperopoli/22406;"051 810306";;"2019-12-05 21:18:09";"2019-12-05 21:18:09"
5825;aree_sosta_camper;"Camper Service ";"A 300 metri dal centro, in adiacenza di ristorante e pizzeria Itaca, zona parcheggio, illuminata, mista con auto ma con 4 posti camper. Scarico a terra con grata, acqua a pagamento.";"Via Roma ";;"Calderara di Reno";;Bologna;Bologna-Modena;40012;44.559454;11.269268;https://www.camperonline.it/sosta-camper/aree-di-sosta/italia/emilia-romagna/camper-service-calderara-di-reno/23034;;;"2019-12-05 21:18:09";"2019-12-05 21:18:09"
5826;aree_sosta_camper;"Camper Service ";"La colonnina dell'acqua, a gettone, scarico acque WC, scarico a terra, autopulente";"via Marano, 1 ";;Castenaso;;Bologna;Bologna-Modena;40055;44.515715;11.468866;http://www.comune.castenaso.bo.it/aree-tematiche/ambiente/camper-service?searchterm=camper;;;"2019-12-05 21:18:09";"2019-12-05 21:18:09"
5827;aree_sosta_camper;"Area Attrezzata ";"Area attrezzata sosta camper Campeggio Comunale Estense - Nel Parco Urbano, fuori le mura. Pagamento";"Via Gramicia, 76 ";;Ferrara;;Ferrara;Bologna-Modena;44100;44.854065;11.631598;https://www.ferraraterraeacqua.it/it/servizi-e-fiere/aree-sosta-camper-campeggi-e-camper-service;"0532 752396";;"2019-12-05 21:18:09";"2019-12-05 21:18:09"
5828;aree_sosta_camper;"Area Sosta ";"Registrazione obbligatoria gratuita dal sito per prenotare l'ingresso nell'area attrezzata. Pagamento online per garantire l'accesso, Ricezione codice a barra e stampa per effettuare l'accesso: https://www.ferraratua.it/camper Illuminata, acqua, scarico autopulente, video sorvegliata. Sosta tariffa massima giornaliera: 10 euro";"Via Rampari di San Paolo ";;Ferrara;;Ferrara;Bologna-Modena;44100;44.835178;11.610425;https://www.ferraraterraeacqua.it/it/servizi-e-fiere/aree-sosta-camper-campeggi-e-camper-service;"0532 230110";;"2019-12-05 21:18:09";"2019-12-05 21:18:09"
5829;aree_sosta_camper;"Area Attrezzata ";"Area per camper nel porto lato Po, a pagamento. illuminato, tranquillo, gestito da Circolo ANMI Gorino-Goro, 40 posti (20 su prato e 20 su asfalto), wc nei pressi. Apertura: Annuale.";"Vicolo del Faro, 39";;Goro;"Gorino ferrarese";Ferrara;Emilia;44020;44.81813;12.35101;https://www.ferraraterraeacqua.it/it/servizi-e-fiere/aree-sosta-camper-campeggi-e-camper-service;"333 1370197 - 0533 995030";;"2019-12-05 21:18:09";"2019-12-05 21:18:09"
5830;aree_sosta_camper;"Area Attrezzata ";"Gratuita e con carico e scarico. Apertura annuale";"Via Cesare Laurenti, 55 ";;Mesola;;Ferrara;Emilia;44026;44.92325;12.23432;https://www.ferraraterraeacqua.it/it/servizi-e-fiere/aree-sosta-camper-campeggi-e-camper-service;;;"2019-12-05 21:18:09";"2019-12-05 21:18:09"
5831;aree_sosta_camper;"Area Sosta Bosco Mesola";"Area attrezzata sosta camperweb Oasi Park 2.  A pagamento: camper service, servizi con docce e lavelli, biciclette, sistema antizanzare, illuminazione, si cani, annuale, piscina e ristorazione a 100 m.";"Via Cristina, 84";;Mesola;;Ferrara;Emilia;44026;44.876322;12.230447;https://www.ferraraterraeacqua.it/it/servizi-e-fiere/aree-sosta-camper-campeggi-e-camper-service;"0533 794386 - 324 0909114";;"2019-12-05 21:18:09";"2019-12-05 21:18:09"
5832;aree_sosta_camper;"Punto Sosta";"Punto sosta camper sulla destra del Po (vicino al Ponte per Polesella), nei pressi area golenale “Oasi Mulino sul Po”. Solo carico acqua, elettricita', illuminata, gratuita.";"Ciclabile FE20";;"Riva del Po";"Ro Ferrarese";Ferrara;Emilia;44020;44.9566;11.75691;https://www.ferraraterraeacqua.it/it/servizi-e-fiere/aree-sosta-camper-campeggi-e-camper-service;;;"2019-12-05 21:18:09";"2019-12-05 21:18:09"
5833;aree_sosta_camper;"Area Attrezzata ";"Parcheggio su terra battuta, CS con scarico per WC nautici";"Via Michelangelo";;Copparo;;Ferrara;Emilia;44034;44.891642;11.812727;https://www.ferraraterraeacqua.it/it/servizi-e-fiere/aree-sosta-camper-campeggi-e-camper-service;;;"2019-12-05 21:18:09";"2019-12-05 21:18:09"
5834;aree_sosta_camper;"Camper service via Galassi ";"L'accesso dell'area è chiuso da sbarra, per accedere rivolgersi al Comando di Polizia Municipale che autorizza l'accesso mediante consegna personale della chiave del lucchetto e previo versamento di una cauzione. Piazzole disponibili: 3";"Via Giuseppe Galassi";;Argenta;;Ferrara;Emilia;44011;44.61191;11.840215;https://www.ferraraterraeacqua.it/it/servizi-e-fiere/aree-sosta-camper-campeggi-e-camper-service;;;"2019-12-05 21:18:09";"2019-12-05 21:18:09"
5835;aree_sosta_camper;"Nuova Area sosta camper Bosco Vecchio";"L'accesso dell'area è chiuso da sbarra, per accedere si deve ritirare la chiave presso l'Ufficio I.A.T. (Informazione ed Accoglienza Turistica) del Comune di Argenta situato in P.zza Marconi, 1- C/O centro culturale ""Mercato"". Apertura: annuale. Permanenza: concessa per la durata di 24 ore.";"V. Poderi, sulla S.S. 16 ""Adriatica"" in direzione Ravenna. ";;Argenta;;Ferrara;Emilia;44011;44.630163;11.811207;https://www.ferraraterraeacqua.it/it/servizi-e-fiere/aree-sosta-camper-campeggi-e-camper-service;"0532 330276";;"2019-12-05 21:18:09";"2019-12-05 21:18:09"
5836;aree_sosta_camper;"Sosta camper presso il Museo delle Valli di Argenta";"Sempre aperto su prenotazione telefonica";"Via Cardinala, 1";;Argenta;;Ferrara;Emilia;44011;44.58278;11.798903;https://www.ferraraterraeacqua.it/it/servizi-e-fiere/aree-sosta-camper-campeggi-e-camper-service;"0532 808035 - 0532 808058";;"2019-12-05 21:18:09";"2019-12-05 21:18:09"
5837;aree_sosta_camper;"Anse Vallive ";"Agricampeggio con 40 piazzole per camper e caravan, CS, allaccio elettrico, servizi con docce, parco giochi bimbi. Servizio degustazione e ristorazione. Apertura annuale. A pagamento";"Via Argine Mezzano, 1 ";;Ostellato;;Ferrara;Emilia;44020;44.743137;11.967459;https://www.ferraraterraeacqua.it/it/servizi-e-fiere/aree-sosta-camper-campeggi-e-camper-service;;;"2019-12-05 21:18:09";"2019-12-05 21:18:09"
5838;aree_sosta_camper;"Area Camper ";"Area attrezzata sosta camperweb - Camper Service Comunale";"Via dello Sport";;Tresignana;Tresigallo;Ferrara;Emilia;44039;44.816097;11.899969;https://www.ferraraterraeacqua.it/it/servizi-e-fiere/aree-sosta-camper-campeggi-e-camper-service;;;"2019-12-05 21:18:09";"2019-12-05 21:18:09"
5839;aree_sosta_camper;"Area sosta camper e camper service";"E' consentita la sosta nell'area per massimo 72 ore, è ombreggiato, illuminato ed asfaltato a pochi metri dal centro.";"Via Mazzini ";;Portomaggiore;;Ferrara;Emilia;44015;44.697156;11.809241;https://www.ferraraterraeacqua.it/it/servizi-e-fiere/aree-sosta-camper-campeggi-e-camper-service;;;"2019-12-05 21:18:09";"2019-12-05 21:18:09"
5840;aree_sosta_camper;"Area Sosta ";"10 posti con attacco luce, scarico acque nere-grigie, carico acqua potabile. Sempre aperta. Gratuita.";"Piazza Pertini/Via Forti, 6";;Fiscaglia;Migliarino;Ferrara;Emilia;44027;44.772346;11.934167;https://www.ferraraterraeacqua.it/it/servizi-e-fiere/aree-sosta-camper-campeggi-e-camper-service;;;"2019-12-05 21:18:09";"2019-12-05 21:18:09"
5841;aree_sosta_camper;"Area di sosta camper ""Ariaperta"" ";"99 piazzole, servizio di carico/scarico, colonnine per la ricarica elettrica, servizi igienici. L’area è alberata ed è situata al margine del paese di San Giuseppe, frazione di Comacchio";"Via delle Nazioni, 39";;Comacchio;"San Giuseppe";Ferrara;Emilia;44022;44.726644;12.225713;https://www.ferraraterraeacqua.it/it/servizi-e-fiere/aree-sosta-camper-campeggi-e-camper-service;"334 2680986 - info@ariaapertasostacamper.it ";;"2019-12-05 21:18:09";"2019-12-05 21:18:09"
5842;aree_sosta_camper;"Area Sosta Teodorico";"Camper service - svuotatoio chimico, illuminazione di area carico e scarico, prese per il rifornimento acqua";"Via Teodorico";;Ravenna;;Ravenna;Romagna;48100;44.4236694;12.2099242;http://www.turismo.ra.it/ita/Ospitalit%C3%A0/Dove-dormire/Dettaglio/215/Teodorico;"0544 451539";;"2019-12-05 21:18:09";"2019-12-05 21:18:09"
5843;aree_sosta_camper;"Area Sosta Ancora Blu ";"Accettazione piccoli animali domestici (cani al guinzaglio), Camper service - svuotatoio chimico, Numero piazzole (20 con energia elettrica), Superficie mq 12001, Terreno erboso";"Via Giuseppe Guizzetti, 10";;Ravenna;"Porto Corsini";Ravenna;Romagna;48123;44.4955612;12.2766684;http://www.turismo.ra.it/ita/Ospitalit%C3%A0/Dove-dormire/Dettaglio/160/Ancora-Blu---Porto-Corsini;"0544 446398 - 338 4712961";;"2019-12-05 21:18:09";"2019-12-05 21:18:09"
5844;aree_sosta_camper;"Area Sosta  Piazza della Resistenza";"Camper service - svuotatoio chimico, illuminazione di area carico e scarico, prese per il rifornimento acqua";"Piazza della Resistenza";;Ravenna;;Ravenna;Romagna;48100;44.4144383;12.1888993;http://www.turismo.ra.it/ita/Ospitalit%C3%A0/Dove-dormire/Dettaglio/218/Piazza-della-Resistenza;"0544 35755";;"2019-12-05 21:18:09";"2019-12-05 21:18:09"
5845;aree_sosta_camper;"Area Sosta  Piazza Fratelli Minardi";"Camper service - svuotatoio chimico, illuminazione di area carico e scarico, prese per il rifornimento acqua";"Piazza Fratelli Minardi";;Ravenna;;Ravenna;Romagna;48100;44.4170317;12.2040764;http://www.turismo.ra.it/ita/Ospitalit%C3%A0/Dove-dormire/Dettaglio/734/Piazza-Fratelli-Minardi;"0544 451539";;"2019-12-05 21:18:09";"2019-12-05 21:18:09"
5846;aree_sosta_camper;"Area Sosta  Classe";"Camper service - svuotatoio chimico, illuminazione di area carico e scarico, prese per il rifornimento acqua";"Piazzale Ravaioli Guerrino";;Ravenna;Classe;Ravenna;Romagna;48124;44.3781636;12.2356708;http://www.turismo.ra.it/ita/Ospitalit%C3%A0/Dove-dormire/Dettaglio/217/Classe;"0544 473661";;"2019-12-05 21:18:09";"2019-12-05 21:18:09"
5847;aree_sosta_camper;"Area Lido di Dante";"L'ingresso è regolamentato da sbarra, fondo in erba ed è dotata di camper service a botola con coperchio e fontanella dell’acqua potabile di facile accesso e manovrabilità. L’area non dispone di allacci per la corrente elettrica né di illuminazione diretta. Le spiagge si trovano a 350 metri circa.";"Via Marabina";;Ravenna;"Lido di Dante";Ravenna;Romagna;48124;44.3882474;12.3150492;http://www.turismo.ra.it/ita/Ospitalit%C3%A0/Dove-dormire/Dettaglio/684/Area-Lido-di-Dante;"331 4199892";;"2019-12-05 21:18:09";"2019-12-05 21:18:09"
5848;aree_sosta_camper;"Area Sosta  Sant'Alberto";;"Piazza Tempioni";;Ravenna;Sant'Alberto;Ravenna;Romagna;48123;44.5431383;12.1544286;http://www.turismo.ra.it/ita/Ospitalit%C3%A0/Dove-dormire/Dettaglio/219/Sant%27Alberto;"0544 528710";;"2019-12-05 21:18:09";"2019-12-05 21:18:09"
5849;aree_sosta_camper;"Area Sosta  Eurolandia";"Area recintata, accesso con barriera automatica, videosorveglianza, illuminazione, aiuole e panchine, acqua potabile, scarico di acque grigie e reflue, colonnine erogazione energia elettrica a pagamento";"Via Romea Sud";;"Cervia ";Savio;Ravenna;Romagna;48015;44.3643897;12.2511755;http://www.turismo.ra.it/ita/Ospitalit%C3%A0/Dove-dormire/Dettaglio/735/Eurolandia;"371 1353617";;"2019-12-05 21:18:09";"2019-12-05 21:18:09"
5850;aree_sosta_camper;"Area Sosta  Casalborsetti";"A pagamento, l’area aperta da inizio Marzo a fine Ottobre, reception solo nei mesi estivi dalle ore 08.00 alle ore 23.00, colonnine per erogazione energia elettrica , lavelli per stoviglie, lavelli per indumenti, barbecue, docce fredde, postazione per carico acqua e scarico liquami. Presente anche il Wi-Fi.";"Via S. Ortolani";;Ravenna;Casalborsetti;Ravenna;Romagna;48123;44.5501378;12.2795046;http://casalborsetti.eu/portfolio/area-camper/;"0544 444912 - 333 8890026";;"2019-12-05 21:18:09";"2019-12-05 21:18:09"
5851;aree_sosta_camper;"Area Lido di Savio";"Numero piazzole 90, scarico liquami 9 - 12 / 15 - 18";"Piazza Forlimpopoli";;Ravenna;"Lido di Savio ";Ravenna;Romagna;48125;44.3094068;12.3431673;http://www.turismo.ra.it/ita/Ospitalit%C3%A0/Dove-dormire/Dettaglio/682/Area-Lido-di-Savio;"339 8215170 - 347 5887647";;"2019-12-05 21:18:09";"2019-12-05 21:18:09"
5852;aree_sosta_camper;"Area attrezzata Agriturismo Massari";"A pagamento: acqua, pozzetto, servizi con docce, spazio tende, sì cani, annuale, ristorante.";"Via Coronella, 110";;"Conselice ";;Ravenna;Romagna;48017;44.5312624;11.8183167;http://www.comune.conselice.ra.it/Citta-e-territorio/Ospitalita-e-Tempo-Libero/Aree-Camper;"0545 980013 ";;"2019-12-05 21:18:09";"2019-12-05 21:18:09"
5853;aree_sosta_camper;"Sosta Piazza Padre Bernardo Menni  ";"30 posti segnati per auto, consentito ai camper, in piano, asfaltato, illuminato, non ombreggiato, non custodito, silenzioso in zona abitata, nessun servizio, cani ammessi";"Piazza Padre Bernardo Menni";;Conselice;;Ravenna;Romagna;48017;44.509005;11.824929;http://www.comune.conselice.ra.it/Citta-e-territorio/Ospitalita-e-Tempo-Libero/Aree-Camper;"0545 280898";;"2019-12-05 21:18:09";"2019-12-05 21:18:09"
5854;aree_sosta_camper;"Camper Service";"Ampio parcheggio segnalato a poche decine di metri. Possibilità di rifornimento acqua potabile, scarico acque a pozzetto";"Via G. Amendola";;Conselice;;Ravenna;Romagna;48017;44.508617;11.834323;http://www.comune.conselice.ra.it/Citta-e-territorio/Ospitalita-e-Tempo-Libero/Aree-Camper;"0545 280898";;"2019-12-05 21:18:09";"2019-12-05 21:18:09"
5855;aree_sosta_camper;"Parcheggio Camper";"Solo Sosta, no servizi";"Via C. Battisti";;Conselice;;Ravenna;Romagna;48017;44.512165;11.83128;http://www.comune.conselice.ra.it/Citta-e-territorio/Ospitalita-e-Tempo-Libero/Aree-Camper;"0545 280898";;"2019-12-05 21:18:09";"2019-12-05 21:18:09"
5856;aree_sosta_camper;"Camper Service";"Possibilità di rifornimento acqua potabile, scarico acque a pozzetto.";"Via Provinciale Bastia, 357";;Conselice;Lavezzola;Ravenna;Romagna;48017;44.553637;11.878157;http://www.comune.conselice.ra.it/Citta-e-territorio/Ospitalita-e-Tempo-Libero/Aree-e-Parcheggi-Camper-Camper-Service;"0545 280898";;"2019-12-05 21:18:09";"2019-12-05 21:18:09"
5857;aree_sosta_camper;"Parcheggio Camper";"Area sosta libera, no servizi";"Piazza Tiziano, Lavezzola";;Conselice;Lavezzola;Ravenna;Romagna;48017;44.5642275;11.8749869;http://www.comune.conselice.ra.it/Citta-e-territorio/Ospitalita-e-Tempo-Libero/Aree-e-Parcheggi-Camper-Camper-Service;"0545 280898";;"2019-12-05 21:18:09";"2019-12-05 21:18:09"
5858;aree_sosta_camper;"Area di sosta di Via Stradello";"Illuminazione notturna, animali ammessi, aperto tutto l'anno, sosta gratuita, carico acqua, pozzetto scarico griglia a terra, scarico cassetta WC L’accesso è libero, gratuito ed autogestito.";"Via Stradello ";;"Bagnacavallo ";;Ravenna;Romagna;48012;44.421993;11.973832;http://www.romagnadeste.it/en/3-bagnacavallo/i1000024-area-di-sosta-di-via-stradello.htm#;"0545 280898";;"2019-12-05 21:18:09";"2019-12-05 21:18:09"
5859;aree_sosta_camper;"Punto Sosta/Parcheggio Camper";"4 piazzole sosta, no servizi";"Via Fossa, 53";;"Bagnacavallo ";;Ravenna;Romagna;48012;44.420324;11.976192;;"0545 280898";;"2019-12-05 21:18:09";"2019-12-05 21:18:09"
5860;aree_sosta_camper;"Punto camper";"L’accesso è libero, gratuito ed autogestito. ";"Via Foro Boario, Parcheggio del PARCO del LOTO ";;"Lugo ";;Ravenna;Romagna;48022;44.425364;11.907856;http://www.comune.lugo.ra.it/Citta-e-territorio/Ospitalita/Punto-camper2;;;"2019-12-05 21:18:09";"2019-12-05 21:18:09"
5861;aree_sosta_camper;"Punto Carico Scarico";"Il servizio è gratuito e i camperisti hanno il dovere di lasciare l'area pulita.";"via Piratello 1041-106";;"Lugo ";;Ravenna;Romagna;48022;44.4337723;11.8958445;http://www.comune.lugo.ra.it/Citta-e-territorio/Ospitalita/Punto-camper2;"0545 280898";;"2019-12-05 21:18:09";"2019-12-05 21:18:09"
5862;aree_sosta_camper;"Area parcheggio camper ";"Non sono presenti attacchi per acqua e luce - Sosta gratuita.";"Via Marconi, Parcheggio Via Golfieri (lato Cimitero dell’Osservanza) ";;"Faenza  ";;Ravenna;Romagna;48018;44.2807074;11.870516;http://www.terredifaenza.it/ospitalita/dove_dormire/os_areesosta/pagina6-081.html;"0546 21695";;"2019-12-05 21:18:09";"2019-12-05 21:18:09"
5863;aree_sosta_camper;"Area sosta camper ";"Area attrezzata sosta camperweb con parcheggio e scarico situata subito dopo il ponte sul fiume Senio. Fornitura di acqua e luce. Asfaltata, pianeggiante ed illuminata. L'utilizzo dello scarico e del parcheggio sono gratuiti. Area che consente ai camper lo scarico dei servizi igienici e dispone di fornitura acqua.";"Parco Fluviale - Via Firenze ";;"Riolo Terme ";;Ravenna;Romagna;48025;44.2727194;11.719648;http://www.terredifaenza.it/ospitalita/dove_dormire/os_areesosta/pagina5-081.html;;;"2019-12-05 21:18:09";"2019-12-05 21:18:09"
5864;aree_sosta_camper;"Area attrezzata Parco Tombarona";"Area attrezzata Parco Tombarona Acqua, pozzetto, attacco luce. Tariffe: € 10,00 24/h Apertura annuale Animali ammessi POsto Camper 18/20";"Via Giuseppe Billi";;"Brisighella ";;Ravenna;Romagna;48013;44.2217928;11.7785787;http://www.terredifaenza.it/ospitalita/dove_dormire/os_areesosta/pagina8-081.html;"0546 81166 ";;"2019-12-05 21:18:09";"2019-12-05 21:18:09"
5865;aree_sosta_camper;"Area Sosta Casola Valsenio";"Parcheggio gratuito illuminato con attacchi acqua a luce.";"Via II Giugno";;"Casola Valsenio ";;Ravenna;Romagna;48032;44.222484;11.619478;http://www.terredifaenza.it/ospitalita/dove_dormire/os_areesosta/pagina9-081.html;;;"2019-12-05 21:18:09";"2019-12-05 21:18:09"
5866;aree_sosta_camper;"Area Sosta Casola Valsenio ";"Parcheggio gratuito illuminato";"Via Gramsci";;"Casola Valsenio ";;Ravenna;Romagna;48032;44.226994;11.630447;http://www.terredifaenza.it/ospitalita/dove_dormire/os_areesosta/pagina9-081.html;;;"2019-12-05 21:18:09";"2019-12-05 21:18:09"
5867;aree_sosta_camper;"Area Sosta attrezzata Gratuita Via Ascione";"Operazioni di scarico e carico acque e zona di manovra mezzi. Sono presenti colonnine per prelievo acqua potabile e pozzetti per scarico acque nere (gratuito). Non è possibile campeggiare (aprire tettoie, tavoli o sedie).";"Via Aldo Ascione, 4, ";;"Cervia ";;Ravenna;Romagna;48015;44.281645;12.324678;http://www.turismo.comunecervia.it/it/come-arrivare/mobilita/parcheggi/aree-di-sosta-camper/aree-di-sosta-camper;"0544 974400 - 0544 977194 - iatcervia@cerviaturismo.it";;"2019-12-05 21:18:09";"2019-12-05 21:18:09"
5868;aree_sosta_camper;"Area Sosta Via Ravenna - Stadio";"A pagamento, area non attrezzata. Non è possibile campeggiare (aprire tettoie, tavoli o sedie).";"Via Ravenna - Stadio, 60";;"Cervia ";"Milano Marittima ";Ravenna;Romagna;48015;44.275692;12.340735;http://www.turismo.comunecervia.it/it/come-arrivare/mobilita/parcheggi/aree-di-sosta-camper/aree-di-sosta-camper;"0544 974400 - 0544 977194 - iatcervia@cerviaturismo.it";;"2019-12-05 21:18:09";"2019-12-05 21:18:09"
5869;aree_sosta_camper;"Campeggio Camper Gratuito";"Gratuita, area non attrezzata. Non è possibile campeggiare (aprire tettoie, tavoli o sedie). ";"Via Platone, 12";;"Cervia ";;Ravenna;Romagna;48015;44.240257;12.358701;http://www.turismo.comunecervia.it/it/come-arrivare/mobilita/parcheggi/aree-di-sosta-camper/aree-di-sosta-camper;"0544 974400 - 0544 977194 - iatcervia@cerviaturismo.it";;"2019-12-05 21:18:09";"2019-12-05 21:18:09"
5870;aree_sosta_camper;"Area Sosta Camper ";"Gratuita, operazioni di scarico e carico acque e zona di manovra mezzi, colonnine per prelievo acqua potabile e pozzetti per scarico acque nere (gratuito). Non è possibile campeggiare (aprire tettoie, tavoli o sedie).";"Via Eugenio Montale, 4";;"Cervia ";Pinarella;Ravenna;Romagna;48015;44.240709;12.364188;http://www.turismo.comunecervia.it/it/come-arrivare/mobilita/parcheggi/aree-di-sosta-camper/aree-di-sosta-camper;"0544 974400 - 0544 977194 - iatcervia@cerviaturismo.it";;"2019-12-05 21:18:09";"2019-12-05 21:18:09"
5871;aree_sosta_camper;"Area Sosta Camper";"Parcheggio a pagamento attrezzato per camper. Numero di posteggi: 35 Servizi:  sistema d'illuminazione notturna, contenitori di raccolta rifiuti, carico/scarico acque reflue";"SS 16 Adriatica - Cesenatico Centro Storico ";;Cesenatico;;Forlì-Cesena;Romagna;47042;44.235676;12.357936;https://www.cesenatico.it/scheda.asp?ambiente_it=COME%20ARRIVARE&famiglia_it=MOBILITA%27&sottofamiglia_it=PARCHEGGI&nome=AREA%20SOSTA%20CAMPER%20STRADA%20STATALE%20ADRIATICA&id=1143;"346 6149632";;"2019-12-05 21:18:09";"2019-12-05 21:18:09"
5872;aree_sosta_camper;"Punto Sosta camper";"Ampio spazio sosta in prossimità dell'uscita ""San Piero in Bagno"" della superstrada E-45. L'area non è dotata di servizio di carico e scarico per camper.";"Via Battistini";;"Bagno di Romagna";"San Piero in Bagno";Forlì-Cesena;Romagna;47021;43.863714;11.977152;http://www.bagnodiromagnaturismo.it/-/area-di-sosta-camper-di-s-piero-in-bagno-aree_sosta;"0543 911046 - info@bagnodiromagnaturismo.it";;"2019-12-05 21:18:09";"2019-12-05 21:18:09"
5873;aree_sosta_camper;"Area di Sosta Ambrola";"Attrezzata per: sosta, ricarica elettrica, camper service - scarico acque nere, il rifornimento idrico";"Via Ambrola";;Sarsina;;Forlì-Cesena;Romagna;47027;43.9173934;12.1435675;http://www.sarsinaturismo.it/-/area-sosta-ambrola-_aree_sosta;"0547 698102";;"2019-12-05 21:18:09";"2019-12-05 21:18:09"
5874;aree_sosta_camper;"Area di Sosta Via Lunga";"E' possibile sostare senza disponibilità di altri servizi, se non altrimenti specificati";"Via Lunga, 51 ";;Forlì;;Forlì-Cesena;Romagna;47122;44.23822;12.033246;http://www.turismoforlivese.it/servizi/menu/dinamica.aspx?ID=4661;"0543 712111";;"2019-12-05 21:18:09";"2019-12-05 21:18:09"
5875;aree_sosta_camper;"Area di Sosta Piazzale Giolitti";"E' possibile sostare senza disponibilità di altri servizi, se non altrimenti specificati";"Piazzale G. Giolitti ";;Forlì;;Forlì-Cesena;Romagna;47122;44.221779;12.054983;http://www.turismoforlivese.it/servizi/menu/dinamica.aspx?ID=4661;"0543 712111";;"2019-12-05 21:18:09";"2019-12-05 21:18:09"
5876;aree_sosta_camper;"Area di Sosta PIazzale Zambianchi";"E' possibile sostare senza disponibilità di altri servizi, se non altrimenti specificati";"Piazzale R. Zambianchi ";;Forlì;;Forlì-Cesena;Romagna;47122;44.222038;12.055158;http://www.turismoforlivese.it/servizi/menu/dinamica.aspx?ID=4661;"0543 712111";;"2019-12-05 21:18:09";"2019-12-05 21:18:09"
5877;aree_sosta_camper;"Area di Sosta Marsilio da Padova";"E' possibile sostare senza disponibilità di altri servizi, se non altrimenti specificati";"Via Marsilio da Padova, 5 ";;Forlì;;Forlì-Cesena;Romagna;47122;44.235447;12.071457;http://www.turismoforlivese.it/servizi/menu/dinamica.aspx?ID=4661;"0543 712111";;"2019-12-05 21:18:09";"2019-12-05 21:18:09"
5878;aree_sosta_camper;"Area di Sosta dell'Argine";"E' possibile caricare acqua potabile e scaricare acque nere e grige";"Via Donne della Costituente, 4 ";;Forlì;;Forlì-Cesena;Romagna;47121;44.2189302;12.0319176;http://www.turismoforlivese.it/servizi/menu/dinamica.aspx?ID=4661;"0543 712111";;"2019-12-05 21:18:09";"2019-12-05 21:18:09"
5879;aree_sosta_camper;"Area Sosta Camper";"L'area sosta è aperta tutto l'anno, tempo massimo di permanenza 72 ore ed i cani sono ammessi.";"Viale G. Matteotti";;"Mercato Saraceno";;Forlì-Cesena;Romagna;47025;43.964909;12.198966;http://www.mercatosaracenoturismo.it/aree-di-sosta-camper/-/asset_publisher/7QG7gfVEmttd/content/area-di-sosta-camper-di-mercato-saraceno_aree_sosta?inheritRedirect=false&redirect=http%3A%2F%2Fwww.mercatosaracenoturismo.it%2Faree-di-sosta-camper%3Fp_p_id%3D101_INSTANCE_7QG7gfVEmttd%26p_p_lifecycle%3D0%26p_p_state%3Dnormal%26p_p_mode%3Dview%26p_p_col_id%3Dcolumn-1%26p_p_col_pos%3D1%26p_p_col_count%3D2;"0547 699711";;"2019-12-05 21:18:09";"2019-12-05 21:18:09"
5880;aree_sosta_camper;"Area Sosta Camper ";"Parcheggio con camper service gratuito, possibile sosta notturna, illuminato, tranquillo, a pochi passi dal paese. Carico e scarico non fruibile in inverno per possibili gelate.";"VIA UMBRIA - SP 137";;Verghereto;;Forlì-Cesena;Romagna;47028;43.7928728;12.0043048;http://www.fumaioloturismo.it/area-di-sosta-camper/-/asset_publisher/U3G0fVjxJGaQ/content/camping-tiber-aree_sos-1?inheritRedirect=false&redirect=http%3A%2F%2Fwww.fumaioloturismo.it%2Farea-di-sosta-camper%3Fp_p_id%3D101_INSTANCE_U3G0fVjxJGaQ%26p_p_lifecycle%3D0%26p_p_state%3Dnormal%26p_p_mode%3Dview%26p_p_col_id%3Dcolumn-1%26p_p_col_pos%3D1%26p_p_col_count%3D2;"0543 906589";;"2019-12-05 21:18:09";"2019-12-05 21:18:09"
5881;aree_sosta_camper;"Area Sosta Camper";"Area di sosta gratuita per camper, non riservata. Dotata di acqua, pozzetto di scarico, servizi igienici.";"Piazza G. Racca ";;Longiano;;Forlì-Cesena;Romagna;47020;44.0744147;12.3252033;http://www.comune.longiano.fc.it/servizi/informazioni/informazioni_fase03.aspx?ID=162;"0547 665484";;"2019-12-05 21:18:09";"2019-12-05 21:18:09"
5882;aree_sosta_camper;"Area Sosta Camper";"Dotazioni: camper service Wc Wash con scarico e pulizia pozzetto gratuito. Punto sosta è illuminato. Approvvigionamento acqua: costo 10 cent ogni 100 litri";"Piazzale Ambrosini ";;Cesena;;Forlì-Cesena;Romagna;47522;44.1442863;12.2274802;http://www.comune.cesena.fc.it/cesenaturismo/sostacamper;"0547 356327 ";;"2019-12-05 21:18:09";"2019-12-05 21:18:09"
5883;aree_sosta_camper;"Area Sosta Rio Pircio ";"Wi-Fi free, Sosta notturna/diurna, Rifornimento acque potabili, Lavandini per stoviglie, Bombole Gas, Energia Elettrica, Illuminazione notturna, Docce calde/fredde, bagni";"Via Benivieni, 4";;Rimini;"Bellaria Igea Marina";Rimini;Romagna;47814;44.1271643;12.4888318;https://www.riopircio.com/;"339 1871689 - a.berardi5@alice.it";;"2019-12-05 21:18:09";"2019-12-05 21:18:09"
5884;aree_sosta_camper;"Area Sosta Parking delle Robine ";"A pagamento, area di sosta completamente recintata e videosorvegliata con tutti i servizi";"Viale Pinzon, 258";;Rimini;"Bellaria Igea Marina";Rimini;Romagna;47814;44.128115;12.488727;https://www.parkingdellerobinie.com/;"0541 332301 - info@parkingdellerobinie.com";;"2019-12-05 21:18:09";"2019-12-05 21:18:09"
5885;aree_sosta_camper;"Area Sosta Mare d'Inverno";"A pagamento, piazzole su fondo erboso, servizi igienici, docce fredde e calde, camper service, lavandini, lavatoi per indumenti.";"Via Murri, 13";;Rimini;"Bellaria Igea Marina";Rimini;Romagna;47814;44.1167408;12.4989069;https://www.camperonline.it/sosta-camper/aree-di-sosta/italia/emilia-romagna/mare-d-inverno/4111;"339 1345388 - gianfranco.belle35bq@alice.it";;"2019-12-05 21:18:09";"2019-12-05 21:18:09"
5886;aree_sosta_camper;"Area Sosta Fattoria di Eby ";"A pagamento, costo 16 € al giorno";"Via Tassinara, 81 ";;Saludecio;Pulzona;Rimini;Romagna;47835;43.8970791;12.7289594;https://www.fattoriaeby.it/news/area-camper-se-pranzi-da-noi-il-parcheggio-e-gratis-1;"339 2423644 - 0541 987847 -  info@fattoriaeby.it";;"2019-12-05 21:18:09";"2019-12-05 21:18:09"
5887;aree_sosta_camper;"Area Sosta Camper ";"48 posti vettura, 6 colonne acqua e energia elettrica, pozzetto di scarico wc chimici, servizi igienici. L’accesso all’area è possibile attraverso tessera magnetica, acquistabile presso gli esercizi pubblici di Montefiore Conca.";"Via Europa";;"Montefiore Conca";;Rimini;Romagna;47834;43.890696;12.6105573;https://www.comune.montefiore-conca.rn.it/itinerari;"0541 980035 - ragioneria@comune.montefiore-conca.rn.it";;"2019-12-05 21:18:09";"2019-12-05 21:18:09"
5888;aree_sosta_camper;"Area Sosta l'Adriatico Parking";"A pagamento, area di Sosta aperta tutti i giorni dal 18 marzo 2016 all'8 gennaio 2017. L'Accesso ai Camper è consentito dalle 8:00 alle 22:00.";"Via Benivieni, 12 ";;Rimini;"Bellaria Igea Marina";Rimini;Romagna;47814;44.1267643;12.4879752;http://www.ladriaticoparking.it/;"0541 330214 - ladriatico@alice.it";;"2019-12-05 21:18:09";"2019-12-05 21:18:09"
5889;aree_sosta_camper;"Area Sosta Nautiparking";"A pagamento, attrezzato per camper service, smaltimento e rifornimento idrico, sorveglianza 24 ore, servizi igienici, docce, elettricità";"Via Ortigara, 80 ";;Rimini;"San Giuliano Mare";Rimini;Romagna;47900;44.0746396;12.57041;http://www.riviera.rimini.it/situr/come-arrivare/mobilita/parcheggi/parcheggio-camper-nautica.html;"0541 29488 - info@marinadirimini.com";;"2019-12-05 21:18:09";"2019-12-05 21:18:09"
5890;aree_sosta_camper;"Settebello Rimini Parking";"A pagamento, il piazzale illuminato è dotato di videosorveglianza e attrezzato per la sosta dei camper con carico/scarico e le colonnine per l’allaccio della corrente elettrica.";"Via Roma, 86";;Rimini;;Rimini;Romagna;47900;44.0607356;12.57459;http://www.riviera.rimini.it/situr/come-arrivare/mobilita/parcheggi/parcheggio-bus-via-roma.html;"0541 51861 - riminiparking@gmail.com";;"2019-12-05 21:18:09";"2019-12-05 21:18:09"
5891;aree_sosta_camper;"Area Sosta Mare d'Inverno";"A pagamento, piazzole su fondo erboso, servizi igienici, docce fredde e calde, camper service, lavandini, lavatoi per indumenti.";"Via Murri, 13 ";;Rimini;;Rimini;Romagna;47814;44.116776;12.498868;https://www.camperonline.it/sosta-camper/aree-di-sosta/italia/emilia-romagna/mare-d-inverno/4111;"0541 615750 - 339 1345388 -  gianfranco.belle35bq@alice.it ";;"2019-12-05 21:18:09";"2019-12-05 21:18:09"
5892;aree_sosta_camper;"Area Sosta Porto Mario";"A pagamento, 77 piazzole ognuna delle quali dotata di allaccio elettrico, acqua potabile e scarico acque grigie. Sono presenti: blocco sanitario con docce calde/fredde e servizi igienici (anche per disabili), area camper service, connessione Wi-Fi, area lavaggio panni e stoviglie, distributori automatici bevande.";"Viale Pinzon, 310A ";;Rimini;;Rimini;Romagna;47814;44.12283;12.493268;http://www.portomario.com/parking/;"347 4533383 - info@portomario.com";;"2019-12-05 21:18:09";"2019-12-05 21:18:09"
5893;aree_sosta_camper;"Centro Caravan Misano";"A pagamento, dodici piazzole su fondo in erba determinate da siepi, corrente elettrica, tv/satellitare, WC, WC disabili, wi-fi, scarico wc, lavatoio stoviglie e barbecue. Sono accettati cani di piccola media taglia.";"Via Tavoleto, 53";;Rimini;"Misano Adriatico";Rimini;Romagna;47843;43.967242;12.673198;https://www.centrocaravanmisano.it/area-sosta;"328 546 1851 - 338 4312046 - 347 2486707 - caravanmisano@gmail.com";;"2019-12-05 21:18:09";"2019-12-05 21:18:09"
5894;aree_sosta_camper;"Area Camper - Agriturismo Tenuta Santini";"A pagamentio, 5 stalli coperti, è dotata di carico acqua chiara, scarico delle acque scure, colonnine per l’elettricità. Bagni con doccia. Area WI-FI. Zona lavaggio stoviglie e zona Barbecue.";"Via Campo, 33 ";;Coriano;"Passano di Coriano";Rimini;Romagna;47853;43.959031;12.58752;http://www.tenutasantini.com/area-camper-coriano.cfm;"0541 656527 - 338 1149085 - info@tenutasantini.com";;"2019-12-05 21:18:09";"2019-12-05 21:18:09"
5895;aree_sosta_camper;"Area Caper Parcheggio Verucchio";"6 posti, bar e ristoranti nelle vicinanze, scarico e carico acqua. Area pic - nic nelle vicinanze";"Via Giuseppe Nanni";;Verucchio;;Rimini;Romagna;47826;43.981784;12.425362;http://www.riviera.rimini.it/situr/come-arrivare/mobilita/parcheggi/parcheggio-camper-via-nanni.html;"IAT Verucchio 0541 670222 - 0541 673904";;"2019-12-05 21:18:09";"2019-12-05 21:18:09"
5896;aree_sosta_camper;Santarcamper;"A Pagamento, 17 piazzole, allaccio elettrico, acqua potabile e un pozzetto di carico e scarico, servizi igienici dotati di bagni e quattro docce.";"Via della Resistenza ";;Santarcangelo;;Rimini;Romagna;47822;44.058148;12.446851;http://www.comune.santarcangelo.rn.it/servizi/cultura-turismo/santarcamper-larea-attrezzata-per-la-sosta-di-camper;"0541 356111";;"2019-12-05 21:18:09";"2019-12-05 21:18:09"
5897;aree_sosta_camper;"Area Camper - Agriturismo La Concia";"A pagamento, 20 piazzole per tende;roulotte caravan e Camper con servizio gratuito di luce, acqua calda e scarico.";"via Ca' Berbece, 13";;Pennabilli;;Rimini;Romagna;47864;43.811278;12.278958;http://www.agriturismolaconcia.it/it/agricampeggio.htm;"3388267213 - info@agriturismolaconcia.it";;"2019-12-05 21:18:09";"2019-12-05 21:18:09"
5898;aree_sosta_camper;"Area Camper Da Quinto";"A pagamento, attacco luce dedicato,  rete Wi-Fi";"Via Molino Schieti, 22";;Pennabilli;"Ponte Messa di Pennabilli";Rimini;Romagna;47864;43.825737;12.250293;https://www.campingmarecchia.it/campeggio;"338 7545712 - info@campingmarecchia.it";;"2019-12-05 21:18:09";"2019-12-05 21:18:09"
5899;aree_sosta_camper;"Area Sosta Quattroventi - San Leo (non attrezzato) ";"Consentita sosta diurna e notturna, non consentito campeggiare, aperto tutto l'anno, WC e servizi Disabili";"Stada Quattro Venti 27";;"San Leo";;Rimini;Romagna;47865;43.896082;12.350373;;"0541 916211";;"2019-12-05 21:18:09";"2019-12-05 21:18:09"
5900;aree_sosta_camper;"Parcheggio Camper Piazzale Europa ";"50 posti, Attrezzato per carico e scarico acqua, € 10,00 nelle giornate di fiera";"Via Casotti Tosi, 2";;"Sant'Agata Feltria";;Rimini;Romagna;47866;43.864078;12.205252;http://www.prolocosantagatafeltria.com/area_camper.php;"IAT 0541 848022";;"2019-12-05 21:18:09";"2019-12-05 21:18:09"
5901;aree_sosta_camper;"Parcheggio camper";"Attrezzato per carico e scarico acqua, 5 posti aperto tutto l'anno";"Via Castello di Montebello";;"Poggio Torriana";"Poggio Torriana - Montebello";Rimini;Romagna;47824;43.9701598;12.3686428;http://www.riviera.rimini.it/situr/come-arrivare/mobilita/parcheggi/parcheggio-camper.html;"0541 675220 ";;"2019-12-05 21:18:09";"2019-12-05 21:18:09"
5902;aree_sosta_camper;"Parcheggio bus e camper Foglino";"a pagamento e con custodia solo nel periodo estivo. (Dall'ultimo sabato di maggio fino alla seconda domenica di settembre. No Camper Service";"Via degli Orti";;Rimini;"Torre Pedrera";Rimini;Romagna;47814;44.1025723;12.5119222;http://www.riviera.rimini.it/situr/come-arrivare/mobilita/parcheggi/parcheggio-bus-via-degli-orti.html;"333 5411083 ";;"2019-12-05 21:18:09";"2019-12-05 21:18:09"
5903;aree_sosta_camper;"Parcheggio bus e camper Chiabrera";"Custodito e a pagamento dall'ultimo sabato di maggio alla 2° domenica di settembre.Non c'è camper service. Servizio a custodia 24 ore su 24.";"Via Gabriello Chiabrera";;Rimini;Bellariva;Rimini;Romagna;47814;44.04859;12.597087;http://www.riviera.rimini.it/situr/come-arrivare/mobilita/parcheggi/parcheggi-bus-via-chiabrera.html;"IAT 0541 51331- 0541 704829";;"2019-12-05 21:18:09";"2019-12-05 21:18:09"
