id,code,name,info,location_address,location_number,location_city,location_localita,location_province,location_destination,location_cap,location_lat,location_lng,contacts_telephone,contacts_website,created_at,updated_at
35550,luoghi_verdiani,"Villa Verdi Sant'Agata",,"via Giuseppe Verdi, 31 22",31,"Sant'Agata di Villanova sull'Arda",,Piacenza,Emilia,,45.00575,10.03594444,"+ 39 349 5614424",https://www.villaverdi.info/en,"2022-11-24 17:32:29","2024-03-11 10:26:40"
35551,luoghi_verdiani,"Casa Barezzi",,"via Roma",119,Busseto,,Parma,Emilia,,44.980754,10.042515,"+ 39 339 4449414",info@museocasabarezzi.it,http://www.museocasabarezzi.it/,"2022-11-24 17:32:29","2023-02-10 17:07:58"
35553,luoghi_verdiani,"Casa natale di Roncole",,"Via della Processione - Roncole Verdi",1,Busseto,,Parma,Emilia,,44.95205,10.07225,"+39 0524 801331",info@bussetolive.com,http://www.casanataleverdi.it/,"2022-11-24 17:32:29","2024-02-27 16:30:53"
35960,luoghi_verdiani,"Museo nazionale Giuseppe Verdi",,"Viale Ziliani ",1,Busseto,,Parma,,43011,44.97761,10.03531,"+39 0524 931002",info@museogiuseppeverdi.it,http://www.museogiuseppeverdi.it/,"2022-11-24 17:32:52","2022-11-24 17:32:52"
37868,luoghi_verdiani,"Teatro Verdi",,"Piazza Giuseppe Verdi",,Busseto,,Parma,Emilia,,44.9810657,10.0421552,"+39 052492487 (Iat Busseto)",info@bussetolive.it,http://www.bussetolive.com/it/poi/teatro-giuseppe-verdi/,"2023-01-18 15:21:22","2023-01-18 15:21:22"
