id,code,name,info,location_address,location_number,location_city,location_localita,location_province,location_destination,location_cap,location_lat,location_lng,contacts_website,contacts_phone,contacts_email,created_at,updated_at
5660,motor_valley,"Museo Enzo Ferrari",,"Via Paolo Ferrari",,Modena,,Modena,"Bologna e Modena",41100,44.65208,10.93664,https://www.ferrari.com/it-IT/museums/enzo-ferrari-modena,"059 4397979",biglietteriamef@ferrari.com,"2020-12-29 15:29:33","2022-03-29 17:40:35"
5661,motor_valley,"Museo Ducati",,"Via Cavalieri Ducati",,Bologna,"Borgo Panigale",Bologna,"Bologna e Modena",40132,44.51614,11.26817,https://www.ducati.com/it/it/museo-e-fabbrica-ducati/museo#utm_source=emiliaromagnaturismo&utm_medium=ITA,"051 6413343",,"2020-12-29 15:29:33","2022-03-29 17:40:35"
5662,motor_valley,"Museo del Patrimonio Industriale",,"Ex Fornace Galotti - Via della Beverara",,Bologna,,Bologna,"Bologna e Modena",40131,44.52168,11.33456,https://www.museibologna.it/patrimonioindustriale#utm_source=emiliaromagnaturismo&utm_medium=ITA,"051 6356611",museopat@comune.bologna.it,"2020-12-29 15:29:33","2022-03-29 17:40:35"
5663,motor_valley,"Museo Lamborghini",,"Via Modena",,"Sant'Agata Bolognese",,Bologna,"Bologna e Modena",40019,44.65918,11.12603,https://www.lamborghini.com/it-en/#utm_source=emiliaromagnaturismo&utm_medium=ITA,"051 6817611",,"2020-12-29 15:29:33","2022-03-29 17:40:35"
5664,motor_valley,"Museo Ferruccio Lamborghini",,"Strada Provinciale Galliera",,Argelato,"Funo di Argelato",Bologna,"Bologna e Modena",40050,44.60748,11.36826,https://www.museolamborghini.com#utm_source=emiliaromagnaturismo&utm_medium=ITA,"051 863366 / 338 6511527 / 345 2637045",reservation@museolamborghini.com,"2020-12-29 15:29:33","2022-03-29 17:40:35"
5665,motor_valley,"Museo Ferrari di Maranello",,"via Dino Ferrari",,Maranello,,Modena,"Bologna e Modena",41053,44.5297,10.86151,https://www.ferrari.com/it-IT/museums/ferrari-maranello,"0536 949713","museo@ferrari.com ","2020-12-29 15:29:33","2022-03-29 17:40:35"
5666,motor_valley,"Pagani Automobili - fabbrica e museo",,"Via dell'Industria",,"San Cesario sul Panaro",,Modena,"Bologna e Modena",41018,44.58862,11.02364,https://www.visitmodena.it/it/scopri-modena/la-terra-dei-motori/i-luoghi-dei-motori/motori-pagani-automobili-visita-a-fabbrica-e-museo,059/220022,paganitour@modenatur.it,"2020-12-29 15:29:33","2022-03-29 17:40:35"
5667,motor_valley,"Museo Francesco Baracca",,"via Baracca",,Lugo,,Ravenna,Romagna,48022,44.41725,11.90932,https://www.museobaracca.it/#utm_source=emiliaromagnaturismo&utm_medium=ITA,"0545 38105 / 0545 38561",museobaracca@comune.lugo.ra.it,"2020-12-29 15:29:33","2022-03-29 17:40:35"
5668,motor_valley,"Museo Marco Simoncelli - La Storia del Sic",,"Via Garibaldi",,Coriano,,Rimini,Romagna,47853,43.96538,12.60246,https://lastoriadelsic.com/,"0541 658100",info@lastoriadelsic.com,"2020-12-29 15:29:33","2022-03-29 17:40:35"
5669,motor_valley,"Dallara Accademy",,"Via Provinciale ",,"Varano de' Melegari",,Parma,Emilia,43040,44.68788,10.02871,https://www.dallara.it,"0525 1982980",academy@dallara.it,"2020-12-29 15:29:33","2022-03-29 17:40:35"
5670,motor_valley,"Museo Multimediale Autodromo di Imola - Checco Costa",,"Piazza Ayrton Senna da Silva",,Imola,,Bologna,"Bologna e Modena",40026,44.34435,11.71719,https://www.autodromoimola.it/museo-checco-costa/#utm_source=emiliaromagnaturismo&utm_medium=ITA,"0542 655143",info@maicc.it,"2020-12-29 15:29:33","2022-03-29 17:40:35"
5671,motor_valley,"Museo della moto di Scortichino - Glorie Italiane - Scortino (FE)",,"Via Cimarosa",,Bondeno,"Scortichino di Bondeno",Ferrara,Romagna,44012,44.87955,11.32562,"https://motorvalley.it/museo-della-moto-di-scortichino-glorie-italiane/#utm_source=emiliaromagnaturismo&utm_medium=ITA ","338 3322384",,"2020-12-29 15:29:33","2022-03-29 17:40:35"
5672,motor_valley,"Collezione Battilani",,"via Poiano",,Imola,,Bologna,"Bologna e Modena",40026,44.35872,11.72366,"https://motorvalley.it/collezione-battilani/#utm_source=emiliaromagnaturismo&utm_medium=ITA ","0542 640961",benito.battilani@alice.it,"2020-12-29 15:29:33","2022-03-29 17:40:35"
5673,motor_valley,"Collezione Bruno Nigelli",,"c/o NIFO - via Giuseppe Venturi",,"Monte San Pietro",,Bologna,"Bologna e Modena",40050,44.49122,11.15536,https://motorvalley.it/collezione-bruno-nigelli/#utm_source=emiliaromagnaturismo&utm_medium=ITA,"051 6766792",nifo@nifo.it,"2020-12-29 15:29:33","2022-03-29 17:40:35"
5674,motor_valley,"Collezione Pasquale Mesto",,"Via Minarini ",,"San Lazzaro di Savena",,Bologna,"Bologna e Modena",40068,44.47292,11.40274,https://motorvalley.it/collezione-pasquale-mesto/#utm_source=emiliaromagnaturismo&utm_medium=ITA,"051 9910058 / 370 3012123",mesto.asms@libero.it,"2020-12-29 15:29:33","2022-03-29 17:40:35"
5675,motor_valley,"Collezione Moto Poggi",,"Via G. Vittorio",,Castenaso,"Villanova di Castenaso",Bologna,"Bologna e Modena",40055,44.50483,11.4351,https://motorvalley.it/collezione-moto-poggi/#utm_source=emiliaromagnaturismo&utm_medium=ITA,"339 1671703 / 338 6924706","poggi@tzitalia.it, rinotantini@tin.it","2020-12-29 15:29:33","2022-03-29 17:40:35"
5676,motor_valley,"Collezione Pollini",,"Via Guido Rossa",,"Casalecchio di Reno",,Bologna,"Bologna e Modena",40033,44.48836,11.26479,https://motorvalley.it/collezione-pollini/#utm_source=emiliaromagnaturismo&utm_medium=ITA,"051 520311",collezionepollini@gmail.com,"2020-12-29 15:29:33","2022-03-29 17:40:35"
5677,motor_valley,"Museo delle Moto e dei Ciclomotori DEMM",,"Via Mazzini",,"Alto Reno Terme","Porretta Terme",Bologna,"Bologna e Modena",40046,44.16136,10.9726,http//www.registrostoricodemm.com/museo.htm#utm_source=emiliaromagnaturismo&utm_medium=ITA,"0534 22021",mose.mazzini@gmail.com,"2020-12-29 15:29:33","2022-03-29 17:40:35"
5678,motor_valley,"Collezione Righini",,"Via Nino Bixio",,"Castelfranco Emilia",Panzano,Modena,"Bologna e Modena",41013,44.54105,11.20795,https://www.righiniauto.it/,"051 733169",info@righinimario.it,"2020-12-29 15:29:33","2022-03-29 17:40:35"
5679,motor_valley,"Museo dell'auto e moto d'epoca Umebrto Panini",,"Via Corletto Sud",,Modena,,Modena,"Bologna e Modena",41100,44.621,10.83133,https://www.paninimotormuseum.it/,"059 5962181",west@paninimotormuseum.it,"2020-12-29 15:29:33","2022-03-29 17:40:35"
5680,motor_valley,"Collezione Nello Salsapariglia",,"Via Lazzaretti",,"Bagnolo in Piano",,"Reggio Emilia",Emilia,42011,44.77732,10.67482,https://motorvalley.it/collezione-nello-salsapariglia/#utm_source=emiliaromagnaturismo&utm_medium=ITA,"335 8430203",info@collezionesalsapariglia.it,"2020-12-29 15:29:33","2022-03-29 17:40:35"
5681,motor_valley,"Museo dell?Automobile di San Martino in Rio",,"Via Barbieri",,"San Martino in Rio",,"Reggio Emilia",Emilia,42018,44.73636,10.783,https://www.museodellauto.it#utm_source=emiliaromagnaturismo&utm_medium=ITA,"0522 636133",info@museodellauto.it,"2020-12-29 15:29:33","2022-03-29 17:40:35"
5682,motor_valley,"Museo Old Racing Spare Parts",,"Via Santa Rizza",,Casalgrande,,"Reggio Emilia",Emilia,42013,44.58846,10.72866,https://motorvalley.it/collezione-old-racing-spare-parts-di-mario-sassi#utm_source=emiliaromagnaturismo&utm_medium=ITA,"0522 999179 / 338 3228402",info@oldracingspareparts.com,"2020-12-29 15:29:33","2022-03-29 17:40:35"
5683,motor_valley,"Piccolo Museo della Moto Bariaschi",,"Via San Giuseppe",,Guastalla,,"Reggio Emilia",Emilia,42016,44.90994,10.65279,https://www.piccolomuseodellamoto.it#utm_source=emiliaromagnaturismo&utm_medium=ITA,"0522 831379 ",museobariaschi@yahoo.it,"2020-12-29 15:29:33","2022-03-29 17:40:35"
5684,motor_valley,"Collezione Auto Bandini",,"Via del Braldo",,Forlì,Rovere,Forlì-Cesena,Romagna,47121,44.20355,11.9715,https://motorvalley.it/collezione-automobile-bandini/#utm_source=emiliaromagnaturismo&utm_medium=ITA,"0543 67448",dr.bandini@libero.it,"2020-12-29 15:29:33","2022-03-29 17:40:35"
5685,motor_valley,"Collezione Guzzi Brunelli",,"Viale Roma",,Forlimpopoli,,Forlì-Cesena,Romagna,47034,44.1935,12.12827,https://motorvalley.it/collezione-guzzi-brunelli/#utm_source=emiliaromagnaturismo&utm_medium=ITA,"0543 1908018 / 335 1310902",eliobrunelli@parcodellerose.it,"2020-12-29 15:29:33","2022-03-29 17:40:35"
5686,motor_valley,"Collezione Vespa Mauro Pascoli",,"Via Faentina",,Ravenna,,Ravenna,Romagna,48124,44.42132,12.15206,https://www.collezionevespa.it/#utm_source=emiliaromagnaturismo&utm_medium=ITA,"0544 502078",info@mauropascoli.it,"2020-12-29 15:29:33","2022-03-29 17:40:35"
5687,motor_valley,"Museo Nazionale del Motociclo di Rimini",,"Via Casalecchio",,Rimini,,Rimini,Romagna,47924,44.00269,12.61121,https://www.museomotociclo.it/#utm_source=emiliaromagnaturismo&utm_medium=ITA,"0541 731096 / 347 1844267",info@museomotociclo.it,"2020-12-29 15:29:33","2022-03-29 17:40:35"
5688,motor_valley,"Collezione Ascari Moto Maserati",,"Via dei Tipografi",,Modena,,Modena,"Bologna e Modena",41013,44.62481,10.97705,https://motorvalley.it/collezione-ascari-moto-maserati/#utm_source=emiliaromagnaturismo&utm_medium=ITA,"348 5150777",infosavasrls@gmail.com,"2020-12-29 15:29:33","2022-03-29 17:40:35"
5689,motor_valley,"Collezione Parilla",,"Via Provinciale Faentina",,Modigliana,,Forlì-Cesena,Romagna,47015,44.18203,11.81987,https://motorvalley.it/collezione-parilla/#utm_source=emiliaromagnaturismo&utm_medium=ITA,"0546 941215",,"2020-12-29 15:29:33","2022-03-29 17:40:35"
5690,motor_valley,"Autodromo Internazionale Enzo e Dino Ferrari",,"Piazza Ayrton Senna da Silva",,Imola,,Bologna,"Bologna e Modena",40026,44.34435,11.71719,http://www.autodromoimola.it/#utm_source=emiliaromagnaturismo&utm_medium=ITA,"051 655111",info@autodromoimola.it,"2020-12-29 15:29:33","2022-03-29 17:40:35"
5691,motor_valley,"Autodromo di Modena",,"Strada Pomposiana ",,Modena,Marzaglia,Modena,"Bologna e Modena",41123,44.63438,10.81514,http://www.autodromodimodena.it/,"059 388711 ",info@autodromodimodena.it,"2020-12-29 15:29:33","2022-03-29 17:40:35"
5692,motor_valley,"Autodromo Riccardo Paletti",,"Via Strada per Fosio",,"Varano de' Melegari",,Parma,Emilia,43040,44.68003,10.01923,https://www.autodromovarano.it/,"0525 551211",autodromo@varano.it,"2020-12-29 15:29:33","2022-03-29 17:40:35"
5693,motor_valley,"Misano World Circuit Marco Simoncelli",,"Via Daijiro Kato",,"Misano Adriatico",,Rimini,Romagna,47843,43.96182,12.68451,"https://www.misanocircuit.com/#utm_source=emiliaromagnaturismo&utm_medium=ITA ","0541 618511",info@misanocircuit.com,"2020-12-29 15:29:33","2022-03-29 17:40:35"
5694,motor_valley,"Crossdromo Monte Michelone - Lesignano dè Bagni (PR)",,"Via Motoclub Parma",,"Lesignano de' Bagni",,Parma,Emilia,43037,44.62468,10.28476,https://www.facebook.com/Crossdromo-Lesignano-d%C3%A8-Bagni-Motoclub-Parma-411830542258407/#utm_source=emiliaromagnaturismo&utm_medium=ITA,"347 459 3371",info@motoclubparma.it,"2020-12-29 15:29:33","2022-03-29 17:40:35"
5695,motor_valley,"Motocross Track Pista Predella - San Vittore di Salsomaggiore (PR)",,"S. Vittore Iachino, 37 ",,"Salsomaggiore Terme","San Vittore",Parma,Emilia,,44.77794,9.976489,https://visitsalsomaggiore.it/it/impianti-sportivi/#utm_source=emiliaromagnaturismo&utm_medium=ITA,"0524 579310",segreteria@motoclub-salsomaggiore.it,"2020-12-29 15:29:33","2021-01-20 09:37:33"
5696,motor_valley,"Pista Mini Moto e Karting - San Mauro Mare (FC)",,"Via Cagnona",,"San Mauro Pascoli","San Mauro Mare",Forlì-Cesena,Romagna,47030,44.15882,12.43841,https://www.minimotoitalia.com/#utm_source=emiliaromagnaturismo&utm_medium=ITA,"348 4037770"," info@minimotoitalia.com","2020-12-29 15:29:33","2022-03-29 17:40:35"
5697,motor_valley,"Circuito di Pomposa (FE)",,"Via Orto Alfierino",,Comacchio,"San Giuseppe di Comacchio",Ferrara,Romagna,44022,44.71113,12.21403,https://www.circuitodipomposa.com/#utm_source=emiliaromagnaturismo&utm_medium=ITA,"0533 380366 / 093 / 392 9999399",info@circuitodipomposa.com,"2020-12-29 15:29:33","2022-03-29 17:40:35"
5698,motor_valley,"Xbikes pista minimoto go-kart - Cassana (FE)",,"Via Cesare Diana",,Ferrara,,Ferrara,Romagna,44100,44.85783,11.55491,http://www.xbikes.it/#utm_source=emiliaromagnaturismo&utm_medium=ITA,"0532 733156 /  339 8991339",pistaxbikes@gmail.com,"2020-12-29 15:29:33","2022-03-29 17:40:35"
5914,motor_valley,"Museo dell' auto storica Stanguellini",,"Via Emilia Est",,Modena,,Modena,"Bologna e Modena",41125,44.63613,10.95058,https://www.stanguellini.it/,059/220022,info@modenatur.it,"2022-03-29 17:40:35","2022-03-29 17:40:35"
5915,motor_valley,"Maserati - fabbrica e showroom",,"Via Divisione Acqui",,Modena,,Modena,"Bologna e Modena",41100,44.64898,10.94035,https://www.visitmodena.it/it/scopri-modena/la-terra-dei-motori/i-luoghi-dei-motori/motori-fabbrica-e-showroom-maserati,059/220022,maseratifactorytour@modenatur.it?,"2022-03-29 17:40:35","2022-03-29 17:40:35"
5929,motor_valley,"Museo dell' auto storica Stanguellini",,"Via Emilia Est",,Modena,,Modena,"Bologna e Modena",41125,44.63613,10.95058,https://www.stanguellini.it/,059/220022,info@modenatur.it,"2022-03-29 17:41:13","2022-03-29 17:41:13"
5930,motor_valley,"Maserati - fabbrica e showroom",,"Via Divisione Acqui",,Modena,,Modena,"Bologna e Modena",41100,44.64898,10.94035,https://www.visitmodena.it/it/scopri-modena/la-terra-dei-motori/i-luoghi-dei-motori/motori-fabbrica-e-showroom-maserati,059/220022,maseratifactorytour@modenatur.it?,"2022-03-29 17:41:13","2022-03-29 17:41:13"
5944,motor_valley,"Museo dell' auto storica Stanguellini",,"Via Emilia Est",,Modena,,Modena,"Bologna e Modena",41125,44.63613,10.95058,https://www.stanguellini.it/,059/220022,info@modenatur.it,"2022-03-29 17:47:50","2022-03-29 17:47:50"
5945,motor_valley,"Maserati - fabbrica e showroom",,"Via Divisione Acqui",,Modena,,Modena,"Bologna e Modena",41100,44.64898,10.94035,https://www.visitmodena.it/it/scopri-modena/la-terra-dei-motori/i-luoghi-dei-motori/motori-fabbrica-e-showroom-maserati,059/220022,maseratifactorytour@modenatur.it?,"2022-03-29 17:47:50","2022-03-29 17:47:50"
5968,motor_valley,"Museo dell' auto storica Stanguellini",,"Via Emilia Est",,Modena,,Modena,"Bologna e Modena",41125,44.63613,10.95058,https://www.stanguellini.it/,059/220022,info@modenatur.it,"2022-03-29 17:50:17","2022-03-29 17:50:17"
5969,motor_valley,"Maserati - fabbrica e showroom",,"Via Divisione Acqui",,Modena,,Modena,"Bologna e Modena",41100,44.64898,10.94035,https://www.visitmodena.it/it/scopri-modena/la-terra-dei-motori/i-luoghi-dei-motori/motori-fabbrica-e-showroom-maserati,059/220022,maseratifactorytour@modenatur.it?,"2022-03-29 17:50:17","2022-03-29 17:50:17"
5970,motor_valley,"Galliano Park - pista minimoto e kart",,"Viale Roma",,Forlì,,Forlì-Cesena,Romagna,47121,0,0,http://www.gallianopark.com/,"339 6217820",fabrizio.fantini@tin.it,"2022-03-29 17:50:17","2022-03-29 17:50:17"
